stop_id,stop_name,stop_lat,stop_lon,parent_station
98_1,Črnomerec,45.815002,15.934932,98
98_2,Črnomerec,45.815398,15.933924,98
98_11,Črnomerec,45.815127,15.934536,98
98,Črnomerec,45.815175,15.934464,
99_23,Črnomerec,45.815318,15.933231,99
99_26,Črnomerec,45.814933,15.933877,99
99_31,Črnomerec,45.816087,15.933219,99
99_32,Črnomerec,45.816059,15.933327,99
99_36,Črnomerec,45.814943,15.934140,99
99_42,Črnomerec,45.815739,15.933910,99
99_52,Črnomerec,45.815800,15.934131,99
99_62,Črnomerec,45.815837,15.934329,99
99_75,Črnomerec,45.815703,15.933606,99
99_82,Črnomerec,45.814943,15.934140,99
99_85,Črnomerec,45.815799,15.933997,99
99,Črnomerec,45.815560,15.933810,
100_1,Sveti Duh,45.813211,15.943075,100
100_2,Sveti Duh,45.813639,15.941471,100
100,Sveti Duh,45.813425,15.942273,
101_1,Mandaličina,45.812427,15.948326,101
101_2,Mandaličina,45.812493,15.948860,101
101,Mandaličina,45.812460,15.948593,
102_1,Slovenska,45.812458,15.951965,102
102_2,Slovenska,45.812472,15.952514,102
102,Slovenska,45.812465,15.952239,
103_1,Trg dr. F. Tuđmana,45.813111,15.956823,103
103_2,Trg dr. F. Tuđmana,45.813169,15.957786,103
103_3,Trg dr. F. Tuđmana,45.812808,15.957457,103
103,Trg dr. F. Tuđmana,45.813029,15.957355,
104_22,Britanski trg,45.814285,15.964053,104
104_23,Britanski trg,45.813780,15.964362,104
104_24,Britanski trg,45.813808,15.964171,104
104_28,Britanski trg,45.813944,15.964018,104
104,Britanski trg,45.813954,15.964151,
105_1,Frankopanska,45.813254,15.969401,105
105_2,Frankopanska,45.813303,15.968628,105
105_3,Frankopanska,45.812499,15.969598,105
105_4,Frankopanska,45.812487,15.969483,105
105,Frankopanska,45.812886,15.969278,
106_1,Trg J. Jelačića,45.812858,15.977265,106
106_2,Trg J. Jelačića,45.813069,15.976531,106
106,Trg J. Jelačića,45.812963,15.976898,
107_3,Zrinjevac,45.809168,15.977826,107
107_4,Zrinjevac,45.808883,15.977743,107
107,Zrinjevac,45.809026,15.977785,
109_1,Glavni kolodvor,45.805213,15.979278,109
109_2,Glavni kolodvor,45.805235,15.978460,109
109,Glavni kolodvor,45.805224,15.978869,
110_21,Glavni kolodvor,45.803939,15.978579,110
110_22,Glavni kolodvor,45.803745,15.977791,110
110_26,Glavni kolodvor,45.803622,15.977789,110
110_32,Glavni kolodvor,45.803619,15.977369,110
110_36,Glavni kolodvor,45.803578,15.977422,110
110_41,Glavni kolodvor,45.803857,15.979041,110
110_42,Glavni kolodvor,45.803284,15.977098,110
110_46,Glavni kolodvor,45.803578,15.977422,110
110_51,Glavni kolodvor,45.803781,15.979205,110
110_52,Glavni kolodvor,45.802712,15.977034,110
110_61,Glavni kolodvor,45.803776,15.979408,110
110_62,Glavni kolodvor,45.802209,15.977324,110
110_72,Glavni kolodvor,45.801989,15.977234,110
110_82,Glavni kolodvor,45.803206,15.977119,110
110,Glavni kolodvor,45.803350,15.977845,
111_1,Branimirova,45.805442,15.983765,111
111_2,Branimirova,45.805568,15.984450,111
111,Branimirova,45.805505,15.984107,
112_1,Branim. tržnica,45.806140,15.991980,112
112_2,Branim. tržnica,45.806132,15.991438,112
112,Branim. tržnica,45.806136,15.991709,
113_3,Autobusni kol.,45.804385,15.993636,113
113_4,Autobusni kol.,45.803725,15.993918,113
113,Autobusni kol.,45.804055,15.993777,
114_1,Držićeva,45.801133,15.996430,114
114_2,Držićeva,45.801033,15.994405,114
114_3,Držićeva,45.801971,15.994959,114
114_4,Držićeva,45.800390,15.995899,114
114,Držićeva,45.801132,15.995423,
115_3,Slavonska,45.796620,15.998885,115
115_4,Slavonska,45.796873,15.998658,115
115,Slavonska,45.796746,15.998771,
117_3,Most mladosti,45.782336,16.001459,117
117_4,Most mladosti,45.781892,16.001279,117
117,Most mladosti,45.782114,16.001369,
122_1,Sheraton,45.808056,15.984272,122
122_3,Sheraton,45.808222,15.983731,122
122_4,Sheraton,45.806865,15.983806,122
122,Sheraton,45.807714,15.983936,
123_3,Traumatologija,45.810406,15.983729,123
123_4,Traumatologija,45.809997,15.983602,123
123,Traumatologija,45.810202,15.983665,
124_3,Draškovićeva,45.813353,15.983496,124
124_4,Draškovićeva,45.812828,15.983432,124
124,Draškovićeva,45.813091,15.983464,
125_3,Grškovićeva,45.820142,15.979420,125
125_4,Grškovićeva,45.819783,15.979251,125
125,Grškovićeva,45.819962,15.979336,
126_3,Belostenčeva,45.822331,15.979824,126
126_4,Belostenčeva,45.822549,15.979861,126
126,Belostenčeva,45.822440,15.979843,
127_3,Gupčeva zvijezda,45.828057,15.979454,127
127_4,Gupčeva zvijezda,45.827645,15.979567,127
127,Gupčeva zvijezda,45.827851,15.979511,
128_3,Radić. šetalište,45.831824,15.978034,128
128_4,Radić. šetalište,45.831967,15.977997,128
128,Radić. šetalište,45.831896,15.978015,
135_21,Vrapčanska,45.812739,15.907480,135
135_22,Vrapčanska,45.813021,15.905129,135
135_23,Vrapčanska,45.813455,15.906092,135
135_24,Vrapčanska,45.812627,15.906257,135
135_26,Vrapčanska,45.814300,15.905975,135
135,Vrapčanska,45.813228,15.906187,
136_21,Vrapčanska aleja,45.812436,15.895898,136
136_22,Vrapčanska aleja,45.812619,15.895237,136
136_26,Vrapčanska aleja,45.812969,15.898559,136
136_27,Vrapčanska aleja,45.812578,15.897055,136
136_28,Vrapčanska aleja,45.812821,15.896984,136
136_30,Vrapčanska aleja,45.812587,15.897882,136
136_32,Vrapčanska aleja,45.812619,15.895237,136
136,Vrapčanska aleja,45.812661,15.896693,
137_21,Dubravica,45.813826,15.870128,137
137_22,Dubravica,45.814002,15.869509,137
137,Dubravica,45.813914,15.869819,
138_21,Podsused,45.815889,15.834987,138
138_22,Podsused,45.815987,15.835733,138
138,Podsused,45.815938,15.835360,
139_24,Jarek,45.837350,15.824439,139
139,Jarek,45.837350,15.824439,
140_23,Željeznička stanica,45.845773,15.813986,140
140_24,Željeznička stanica,45.843761,15.815181,140
140,Željeznička stanica,45.844767,15.814584,
141_23,Crkva,45.850447,15.810039,141
141_24,Crkva,45.850229,15.810043,141
141,Crkva,45.850338,15.810041,
142_23,Devčićeva,45.852007,15.809023,142
142,Devčićeva,45.852007,15.809023,
143_23,Kodrmanova,45.855114,15.805954,143
143_24,Kodrmanova,45.854854,15.805822,143
143,Kodrmanova,45.854984,15.805888,
144_21,Dom zdravlja,45.857710,15.802778,144
144_22,Dom zdravlja,45.858151,15.802201,144
144,Dom zdravlja,45.857931,15.802490,
147_24,Kruge,45.794204,15.992696,147
147,Kruge,45.794204,15.992696,
150_21,Prisavlje,45.790370,15.996203,150
150_22,Prisavlje,45.790582,15.995691,150
150,Prisavlje,45.790476,15.995947,
153_21,Farkašička,45.783359,16.008951,153
153,Farkašička,45.783359,16.008951,
154_23,Kuševačka,45.783413,16.012571,154
154,Kuševačka,45.783413,16.012571,
155_22,I. gardijske brigade,45.787668,16.015331,155
155_23,I. gardijske brigade,45.787391,16.015932,155
155,I. gardijske brigade,45.787529,16.015631,
156_23,Savica I.,45.792629,16.017696,156
156_24,Savica I.,45.792366,16.017397,156
156,Savica I.,45.792497,16.017546,
158_21,Borovje,45.788923,16.011224,158
158_22,Borovje,45.788923,16.011224,158
158,Borovje,45.788923,16.011224,
159_24,Ulica grada Chicaga,45.788981,16.008225,159
159,Ulica grada Chicaga,45.788981,16.008225,
160_21,Miševečka,45.785804,16.004337,160
160_24,Miševečka,45.787095,16.005433,160
160,Miševečka,45.786449,16.004885,
161_21,Terminal,45.861714,15.800237,161
161_22,Terminal,45.860994,15.799585,161
161_25,Terminal,45.861058,15.799751,161
161_26,Terminal,45.860895,15.799619,161
161_31,Terminal,45.861924,15.800223,161
161,Terminal,45.861317,15.799883,
163_1,Šubićeva,45.810534,15.994285,163
163_2,Šubićeva,45.810259,15.992275,163
163_3,Šubićeva,45.810915,15.993859,163
163_4,Šubićeva,45.810019,15.992974,163
163,Šubićeva,45.810432,15.993348,
164_21,Roginina,45.811621,15.917806,164
164_22,Roginina,45.811601,15.917200,164
164,Roginina,45.811611,15.917503,
165_21,Gajnice,45.813646,15.873781,165
165_22,Gajnice,45.813781,15.873420,165
165,Gajnice,45.813713,15.873601,
169_1,Britanski trg,45.812327,15.963088,169
169_2,Britanski trg,45.812417,15.964733,169
169,Britanski trg,45.812372,15.963910,
170_23,Folnegovićevo,45.792092,16.002746,170
170_24,Folnegovićevo,45.790911,16.002980,170
170,Folnegovićevo,45.791501,16.002863,
171_3,Folnegovićevo,45.791976,16.002444,171
171_4,Folnegovićevo,45.792242,16.002188,171
171,Folnegovićevo,45.792109,16.002316,
175_3,Jandrićeva,45.836471,15.977467,175
175_4,Jandrićeva,45.836858,15.977365,175
175,Jandrićeva,45.836665,15.977416,
176_21,Mihaljevac,45.841583,15.975500,176
176_24,Mihaljevac,45.841963,15.974896,176
176_27,Mihaljevac,45.841886,15.975311,176
176_28,Mihaljevac,45.841490,15.975079,176
176_29,Mihaljevac,45.841772,15.975202,176
176_34,Mihaljevac,45.841798,15.974822,176
176_44,Mihaljevac,45.840514,15.975449,176
176,Mihaljevac,45.841572,15.975180,
177_3,Mihaljevac,45.841661,15.974786,177
177_4,Mihaljevac,45.841650,15.974632,177
177,Mihaljevac,45.841655,15.974709,
178_21,Sopot,45.777615,15.986540,178
178_22,Sopot,45.777858,15.984608,178
178,Sopot,45.777737,15.985574,
179_1,Sopot,45.777690,15.986807,179
179_2,Sopot,45.777676,15.984570,179
179,Sopot,45.777683,15.985689,
180_21,Središće,45.777698,15.991608,180
180_22,Središće,45.777954,15.989332,180
180_24,Središće,45.777043,15.990388,180
180,Središće,45.777565,15.990443,
181_1,Središće,45.777866,15.991554,181
181_2,Središće,45.777818,15.989334,181
181,Središće,45.777842,15.990444,
182_21,Utrina,45.777808,15.997877,182
182_22,Utrina,45.778141,15.995839,182
182,Utrina,45.777974,15.996858,
183_1,Utrina,45.777974,15.997863,183
183_2,Utrina,45.777977,15.995805,183
183,Utrina,45.777975,15.996834,
184_21,Zapruđe,45.777784,16.000377,184
184_22,Zapruđe,45.778957,16.001482,184
184_24,Zapruđe,45.776890,16.002166,184
184_28,Zapruđe,45.776723,16.002194,184
184_31,Zapruđe,45.781688,16.003167,184
184_32,Zapruđe,45.781868,16.002687,184
184,Zapruđe,45.778985,16.002012,
185_1,Zapruđe,45.778082,16.000883,185
185_2,Zapruđe,45.778074,15.999797,185
185_3,Zapruđe,45.779448,16.001734,185
185_4,Zapruđe,45.778963,16.001860,185
185_8,Zapruđe,45.778180,16.000359,185
185_14,Zapruđe,45.778074,15.999797,185
185,Zapruđe,45.778470,16.000738,
187_1,Žitnjak,45.798857,16.034779,187
187_2,Žitnjak,45.799166,16.034334,187
187,Žitnjak,45.799011,16.034557,
188_1,Adžijina,45.807816,15.961581,188
188_2,Adžijina,45.807564,15.962047,188
188,Adžijina,45.807690,15.961814,
189_1,Aleja javora,45.828572,16.069705,189
189_2,Aleja javora,45.828839,16.067959,189
189,Aleja javora,45.828705,16.068832,
190_1,Badalićeva,45.801701,15.959307,190
190_2,Badalićeva,45.801955,15.959667,190
190,Badalićeva,45.801828,15.959487,
192_22,Borongaj,45.814786,16.018651,192
192_32,Borongaj,45.814700,16.018378,192
192_42,Borongaj,45.814667,16.017922,192
192,Borongaj,45.814718,16.018317,
193_1,Borongaj,45.814181,16.018415,193
193_2,Borongaj,45.814551,16.018831,193
193,Borongaj,45.814366,16.018623,
194_1,Botanički vrt,45.805617,15.973661,194
194_2,Botanički vrt,45.805499,15.974166,194
194,Botanički vrt,45.805558,15.973914,
197_1,Park Maksimir,45.819034,16.014094,197
197_2,Park Maksimir,45.818620,16.012153,197
197,Park Maksimir,45.818827,16.013124,
198_1,Čavićeva,45.801075,16.030538,198
198_2,Čavićeva,45.800822,16.031046,198
198,Čavićeva,45.800948,16.030792,
200_23,Čulinečka,45.827725,16.063081,200
200_24,Čulinečka,45.828145,16.062978,200
200,Čulinečka,45.827935,16.063029,
201_1,Čulinečka,45.828663,16.063821,201
201_2,Čulinečka,45.829037,16.062087,201
201,Čulinečka,45.828850,16.062954,
202_1,Dankovečka,45.829613,16.056817,202
202_2,Dankovečka,45.829435,16.054483,202
202,Dankovečka,45.829524,16.055650,
203_1,Donje Svetice,45.803021,16.014691,203
203_2,Donje Svetice,45.803115,16.015322,203
203,Donje Svetice,45.803068,16.015007,
205_21,Dubec,45.827758,16.075979,205
205_22,Dubec,45.827926,16.077644,205
205_24,Dubec,45.827135,16.076435,205
205_25,Dubec,45.827519,16.077276,205
205_31,Dubec,45.828008,16.077699,205
205_42,Dubec,45.828248,16.078277,205
205_44,Dubec,45.828251,16.077515,205
205_51,Dubec,45.828388,16.077315,205
205_61,Dubec,45.827907,16.078459,205
205_71,Dubec,45.827958,16.078045,205
205_82,Dubec,45.828248,16.078277,205
205,Dubec,45.827941,16.077538,
206_4,Dubec,45.827847,16.077700,206
206_11,Dubec,45.827847,16.077700,206
206_14,Dubec,45.827847,16.077700,206
206,Dubec,45.827847,16.077700,
208_21,Dubrava,45.824690,16.037267,208
208_22,Dubrava,45.824559,16.036352,208
208_23,Dubrava,45.824727,16.036756,208
208_24,Dubrava,45.824480,16.037084,208
208_33,Dubrava,45.824891,16.036696,208
208_34,Dubrava,45.824571,16.037459,208
208_43,Dubrava,45.825036,16.036820,208
208_44,Dubrava,45.824635,16.037786,208
208_53,Dubrava,45.825074,16.036643,208
208_54,Dubrava,45.824594,16.036757,208
208_63,Dubrava,45.825244,16.036587,208
208,Dubrava,45.824773,16.036928,
209_1,Dubrava,45.824855,16.040008,209
209_2,Dubrava,45.824329,16.037137,209
209_7,Dubrava,45.824502,16.037340,209
209_12,Dubrava,45.824437,16.037388,209
209_13,Dubrava,45.824386,16.037146,209
209_14,Dubrava,45.824452,16.037098,209
209,Dubrava,45.824493,16.037686,
211_21,Elka,45.797448,16.038771,211
211_22,Elka,45.797308,16.036382,211
211_25,Elka,45.797251,16.036338,211
211,Elka,45.797336,16.037164,
212_3,Elka,45.797167,16.037390,212
212_4,Elka,45.796787,16.037695,212
212,Elka,45.796977,16.037543,
213_1,Ferenščica,45.804340,16.023261,213
213_2,Ferenščica,45.804338,16.023652,213
213,Ferenščica,45.804339,16.023456,
214_1,Getaldićeva,45.802962,16.026821,214
214_2,Getaldićeva,45.802719,16.027349,214
214,Getaldićeva,45.802840,16.027085,
215_1,Grižanska,45.828880,16.052451,215
215_2,Grižanska,45.828775,16.051900,215
215,Grižanska,45.828828,16.052176,
217_1,Harambašićeva,45.814707,16.008040,217
217_2,Harambašićeva,45.815021,16.008621,217
217,Harambašićeva,45.814864,16.008330,
219_23,Heinzelova,45.803865,16.009522,219
219_24,Heinzelova,45.801846,16.011331,219
219,Heinzelova,45.802856,16.010427,
220_1,Heinzelova,45.812071,16.001288,220
220_2,Heinzelova,45.811531,15.999340,220
220,Heinzelova,45.811801,16.000314,
221_1,Heinzelova,45.802310,16.010506,221
221_2,Heinzelova,45.802454,16.011394,221
221,Heinzelova,45.802382,16.010950,
222_1,Hondlova,45.820979,16.022782,222
222_2,Hondlova,45.820976,16.022082,222
222,Hondlova,45.820978,16.022432,
223_1,Horvati,45.788152,15.942234,223
223_2,Horvati,45.788248,15.940176,223
223,Horvati,45.788200,15.941205,
224_1,Vodnikova,45.805357,15.967644,224
224_2,Vodnikova,45.805509,15.967109,224
224_3,Vodnikova,45.806234,15.966945,224
224_4,Vodnikova,45.805964,15.966605,224
224,Vodnikova,45.805766,15.967076,
225_1,Ivanićgradska,45.803882,16.019926,225
225_2,Ivanićgradska,45.804035,16.020700,225
225,Ivanićgradska,45.803959,16.020313,
226_3,Arena Zagreb,45.778053,15.952830,226
226_4,Arena Zagreb,45.777673,15.952814,226
226,Arena Zagreb,45.777863,15.952822,
227_2,Jagićeva,45.809019,15.957513,227
227,Jagićeva,45.809019,15.957513,
229_23,Jarun,45.783942,15.926081,229
229_24,Jarun,45.783980,15.925851,229
229,Jarun,45.783961,15.925966,
230_1,Hrvatskog sokola,45.789582,15.920610,230
230_2,Hrvatskog sokola,45.789897,15.920025,230
230,Hrvatskog sokola,45.789739,15.920318,
231_1,Jordanovac,45.817623,16.008165,231
231_2,Jordanovac,45.817612,16.007574,231
231,Jordanovac,45.817617,16.007870,
232_1,Jukićeva,45.805175,15.965897,232
232_2,Jukićeva,45.805263,15.965681,232
232,Jukićeva,45.805219,15.965789,
233_1,Kapucinska,45.827598,16.048725,233
233_2,Kapucinska,45.827587,16.048156,233
233,Kapucinska,45.827592,16.048441,
234_1,Knežija,45.788176,15.945426,234
234_2,Knežija,45.788246,15.944686,234
234,Knežija,45.788211,15.945056,
235_1,Kruge,45.800555,15.984929,235
235_2,Kruge,45.800628,15.985420,235
235,Kruge,45.800591,15.985175,
236_1,Kvaternikov trg,45.814926,15.997070,236
236_2,Kvaternikov trg,45.815284,15.997631,236
236_13,Kvaternikov trg,45.814912,15.997227,236
236_14,Kvaternikov trg,45.814723,15.996434,236
236,Kvaternikov trg,45.814961,15.997090,
238_23,Lisinski,45.799405,15.979561,238
238_24,Lisinski,45.799333,15.978566,238
238,Lisinski,45.799369,15.979063,
239_1,Lisinski,45.800285,15.980145,239
239_2,Lisinski,45.800231,15.977867,239
239,Lisinski,45.800258,15.979006,
241_22,Ljubijska,45.825895,16.043760,241
241_32,Ljubijska,45.825895,16.043760,241
241,Ljubijska,45.825895,16.043760,
242_1,Ljubijska,45.826396,16.045377,242
242_2,Ljubijska,45.825981,16.043690,242
242,Ljubijska,45.826189,16.044533,
244_21,Ljubljanica,45.797063,15.936965,244
244_34,Ljubljanica,45.796184,15.936690,244
244_44,Ljubljanica,45.795814,15.936707,244
244_54,Ljubljanica,45.795559,15.936720,244
244,Ljubljanica,45.796155,15.936770,
245_1,Ljubljanica,45.797226,15.938571,245
245_2,Ljubljanica,45.797227,15.937619,245
245_12,Ljubljanica,45.797255,15.937654,245
245_13,Ljubljanica,45.797236,15.937948,245
245,Ljubljanica,45.797236,15.937948,
246_1,Marijane Radev,45.793013,15.902372,246
246_2,Marijane Radev,45.793219,15.901911,246
246,Marijane Radev,45.793116,15.902141,
247_1,Mašićeva,45.816591,16.003540,247
247_2,Mašićeva,45.816521,16.002854,247
247,Mašićeva,45.816556,16.003197,
248_1,Miramarska,45.800058,15.975462,248
248_2,Miramarska,45.799954,15.973722,248
248,Miramarska,45.800006,15.974592,
249_3,Munja,45.792574,16.038158,249
249_4,Munja,45.793125,16.038541,249
249,Munja,45.792849,16.038350,
250_1,Nehajska,45.798837,15.948454,250
250_2,Nehajska,45.798424,15.947032,250
250,Nehajska,45.798631,15.947743,
251_1,Olipska,45.801316,15.999837,251
251_2,Olipska,45.800954,15.999838,251
251,Olipska,45.801135,15.999837,
253_21,Petrova,45.817609,15.997179,253
253_22,Petrova,45.817538,15.996747,253
253,Petrova,45.817574,15.996963,
254_1,Petrova,45.813843,15.991697,254
254_2,Petrova,45.813844,15.991060,254
254,Petrova,45.813844,15.991378,
255_1,Petrovaradinska,45.792400,15.906999,255
255_2,Petrovaradinska,45.792615,15.905252,255
255,Petrovaradinska,45.792507,15.906125,
256_1,Poljanice IV,45.828168,16.072994,256
256_2,Poljanice IV,45.828404,16.072487,256
256,Poljanice IV,45.828286,16.072740,
259_1,Prečko,45.794367,15.893481,259
259_2,Prečko,45.794268,15.892597,259
259,Prečko,45.794318,15.893039,
262_3,Prisavlje,45.791573,15.956958,262
262_4,Prisavlje,45.790390,15.956037,262
262,Prisavlje,45.790981,15.956498,
263_1,Radnička,45.801520,16.003927,263
263_2,Radnička,45.801552,16.004682,263
263,Radnička,45.801536,16.004305,
264_1,Ravnice,45.822082,16.027492,264
264_2,Ravnice,45.822356,16.028295,264
264,Ravnice,45.822219,16.027894,
265_1,Vrbani,45.791625,15.914753,265
265_2,Vrbani,45.791855,15.912910,265
265,Vrbani,45.791740,15.913832,
266_3,Savišće,45.789400,16.034918,266
266_4,Savišće,45.789080,16.034463,266
266,Savišće,45.789240,16.034690,
268_21,Savski gaj,45.776843,15.956925,268
268_22,Savski gaj,45.777388,15.956558,268
268,Savski gaj,45.777115,15.956741,
269_1,Savski gaj,45.777115,15.956777,269
269_2,Savski gaj,45.777162,15.956305,269
269,Savski gaj,45.777138,15.956541,
271_21,Savski most,45.784882,15.952645,271
271_23,Savski most,45.785322,15.953327,271
271_24,Savski most,45.785847,15.952836,271
271_27,Savski most,45.785282,15.952730,271
271_33,Savski most,45.785410,15.953104,271
271_43,Savski most,45.785200,15.952845,271
271_53,Savski most,45.785230,15.952774,271
271_63,Savski most,45.785408,15.952940,271
271,Savski most,45.785323,15.952900,
272_3,Savski most,45.786295,15.953329,272
272_4,Savski most,45.785080,15.952444,272
272,Savski most,45.785687,15.952886,
274_23,Selska,45.799051,15.943096,274
274_24,Selska,45.798438,15.943011,274
274,Selska,45.798744,15.943053,
275_1,Selska,45.797828,15.944096,275
275_2,Selska,45.797720,15.942279,275
275,Selska,45.797774,15.943187,
277_21,Muzej suv.umjetnosti,45.777402,15.981796,277
277_22,Muzej suv.umjetnosti,45.777820,15.978596,277
277_23,Muzej suv.umjetnosti,45.778613,15.980671,277
277_24,Muzej suv.umjetnosti,45.776513,15.979798,277
277,Muzej suv.umjetnosti,45.777587,15.980215,
278_1,Muzej suv.umjetnosti,45.777530,15.979599,278
278_2,Muzej suv.umjetnosti,45.777607,15.980858,278
278,Muzej suv.umjetnosti,45.777569,15.980228,
281_1,Slavenskog,45.794171,15.898965,281
281_2,Slavenskog,45.794373,15.898484,281
281,Slavenskog,45.794272,15.898725,
282_1,Srednjaci,45.788105,15.936814,282
282_2,Srednjaci,45.788215,15.937466,282
282,Srednjaci,45.788160,15.937140,
283_1,Jarun,45.787901,15.929473,283
283_2,Jarun,45.787792,15.930068,283
283,Jarun,45.787847,15.929771,
284_1,Strojarska,45.800764,15.988889,284
284_2,Strojarska,45.800796,15.989582,284
284,Strojarska,45.800780,15.989235,
286_21,St.dom Stjepan Radić,45.786213,15.950760,286
286_22,St.dom Stjepan Radić,45.786505,15.950506,286
286,St.dom Stjepan Radić,45.786359,15.950633,
287_1,St. dom S. Radić,45.786398,15.950995,287
287_2,St. dom S. Radić,45.786772,15.952371,287
287_3,St. dom S. Radić,45.786351,15.951744,287
287,St. dom S. Radić,45.786507,15.951704,
288_3,Studentski centar,45.802951,15.964678,288
288_4,Studentski centar,45.802432,15.964205,288
288,Studentski centar,45.802692,15.964442,
290_23,Svetice,45.817683,16.012967,290
290_24,Svetice,45.819307,16.012840,290
290_33,Svetice,45.817874,16.013033,290
290_43,Svetice,45.818011,16.013020,290
290,Svetice,45.818219,16.012965,
291_1,Svetice,45.815414,16.012794,291
291_2,Svetice,45.815406,16.013330,291
291,Svetice,45.815410,16.013062,
292_1,Šulekova,45.813211,16.004558,292
292_2,Šulekova,45.813341,16.004747,292
292,Šulekova,45.813276,16.004653,
293_4,Talovčeva,45.809666,15.957094,293
293,Talovčeva,45.809666,15.957094,
294_1,Tehnički muzej,45.803327,15.964311,294
294_2,Tehnički muzej,45.803401,15.963518,294
294,Tehnički muzej,45.803364,15.963914,
295_1,Trešnjevački trg,45.800039,15.954840,295
295_2,Trešnjevački trg,45.800109,15.954479,295
295,Trešnjevački trg,45.800074,15.954659,
296_1,Trg hr. velikana,45.811524,15.984472,296
296_2,Trg hr. velikana,45.811804,15.984228,296
296,Trg hr. velikana,45.811664,15.984350,
297_3,Trg P. Krešimira,45.808111,15.991701,297
297_4,Trg P. Krešimira,45.807594,15.991697,297
297,Trg P. Krešimira,45.807852,15.991699,
298_3,Trg Rep. Hrvatske,45.808776,15.968655,298
298_4,Trg Rep. Hrvatske,45.809331,15.968876,298
298,Trg Rep. Hrvatske,45.809053,15.968765,
299_1,Trg žrt. fašizma,45.809444,15.987632,299
299_2,Trg žrt. fašizma,45.810016,15.988373,299
299_17,Trg žrt. fašizma,45.809730,15.988003,299
299,Trg žrt. fašizma,45.809730,15.988003,
301_21,Trnsko,45.776910,15.964189,301
301_22,Trnsko,45.777332,15.964491,301
301,Trnsko,45.777121,15.964340,
302_1,Trnsko,45.777130,15.965220,302
302_2,Trnsko,45.777128,15.964731,302
302,Trnsko,45.777129,15.964976,
303_3,Tržnica Kvatrić,45.814055,15.996525,303
303_4,Tržnica Kvatrić,45.812272,15.994793,303
303,Tržnica Kvatrić,45.813163,15.995659,
304_1,Tuškanova,45.811023,15.997512,304
304_2,Tuškanova,45.811126,15.997721,304
304,Tuškanova,45.811075,15.997616,
305_3,Učit. fakultet,45.797336,15.960876,305
305_4,Učit. fakultet,45.796511,15.960194,305
305,Učit. fakultet,45.796924,15.960535,
307_21,Velesajam,45.777197,15.973007,307
307_22,Velesajam,45.777504,15.970685,307
307,Velesajam,45.777351,15.971846,
308_1,Velesajam,45.777288,15.971466,308
308_2,Velesajam,45.777305,15.970888,308
308,Velesajam,45.777297,15.971177,
309_3,Veslačka,45.788899,15.955138,309
309_4,Veslačka,45.788493,15.954746,309
309,Veslačka,45.788696,15.954942,
310_3,Vjesnik,45.794911,15.959232,310
310_4,Vjesnik,45.793392,15.958070,310
310,Vjesnik,45.794151,15.958651,
311_1,Vončinina,45.813733,15.986755,311
311_2,Vončinina,45.813822,15.986536,311
311,Vončinina,45.813777,15.986646,
312_1,Vrbik,45.799700,15.967661,312
312,Vrbik,45.799700,15.967661,
313_3,Zg. transporti,45.790724,16.036411,313
313_4,Zg. transporti,45.791411,16.037166,313
313,Zg. transporti,45.791068,16.036788,
314_1,Zagrepčanka,45.799343,15.963220,314
314_3,Zagrepčanka,45.800099,15.962840,314
314_4,Zagrepčanka,45.798713,15.961714,314
314,Zagrepčanka,45.799385,15.962591,
316_21,Zapadni kolodvor,45.809494,15.953928,316
316,Zapadni kolodvor,45.809494,15.953928,
319_23,Varaždinska-Selčina,45.831696,16.117300,319
319_24,Varaždinska-Selčina,45.830592,16.115725,319
319,Varaždinska-Selčina,45.831144,16.116512,
320_23,Popovec-gostiona,45.844547,16.132891,320
320_24,Popovec-gostiona,45.843929,16.131913,320
320,Popovec-gostiona,45.844238,16.132402,
321_23,Vugrovečka,45.850094,16.139925,321
321_24,Vugrovečka,45.849619,16.139267,321
321,Vugrovečka,45.849856,16.139596,
322_23,Soblinec,45.857798,16.148022,322
322_24,Soblinec,45.857320,16.147427,322
322,Soblinec,45.857559,16.147724,
323_21,Soblinec-rask.-škola,45.864067,16.154944,323
323_22,Soblinec-rask.-škola,45.864456,16.153723,323
323_23,Soblinec-rask.-škola,45.864319,16.154248,323
323_24,Soblinec-rask.-škola,45.863963,16.153699,323
323,Soblinec-rask.-škola,45.864201,16.154153,
324_23,Žerjavinec,45.871678,16.161318,324
324_24,Žerjavinec,45.870692,16.160160,324
324,Žerjavinec,45.871185,16.160739,
325_21,Belovar,45.882082,16.174856,325
325_23,Belovar,45.882191,16.173499,325
325_24,Belovar,45.881511,16.173164,325
325,Belovar,45.881928,16.173840,
326_23,Mokrička,45.886381,16.174856,326
326_24,Mokrička,45.886248,16.174694,326
326,Mokrička,45.886315,16.174775,
327_23,Adamovec-Šoštarići,45.894691,16.168472,327
327_24,Adamovec-Šoštarići,45.894386,16.168799,327
327,Adamovec-Šoštarići,45.894538,16.168636,
328_23,Antolkovići,45.898193,16.165946,328
328_24,Antolkovići,45.897998,16.166043,328
328,Antolkovići,45.898095,16.165995,
329_22,Adamovec-centar,45.904517,16.163168,329
329_23,Adamovec-centar,45.904605,16.163403,329
329_24,Adamovec-centar,45.904209,16.163338,329
329,Adamovec-centar,45.904444,16.163303,
330_23,Beštaki,45.905677,16.158338,330
330_24,Beštaki,45.905682,16.158145,330
330,Beštaki,45.905680,16.158241,
331_23,Jesenovec-Balšićeva,45.907764,16.156472,331
331_24,Jesenovec-Balšićeva,45.907739,16.156487,331
331,Jesenovec-Balšićeva,45.907751,16.156480,
332_23,Jesenovečka 29,45.914221,16.152051,332
332_24,Jesenovečka 29,45.914216,16.152043,332
332,Jesenovečka 29,45.914218,16.152047,
333_23,Jesenovec-okretište,45.917533,16.145725,333
333_24,Jesenovec-okretište,45.917533,16.145721,333
333,Jesenovec-okretište,45.917533,16.145723,
334_22,Put za Moravče,45.909132,16.164393,334
334_23,Put za Moravče,45.909084,16.164855,334
334_24,Put za Moravče,45.908541,16.164428,334
334,Put za Moravče,45.908919,16.164559,
335_23,Zenki,45.915958,16.159797,335
335_24,Zenki,45.915964,16.159756,335
335,Zenki,45.915961,16.159776,
336_23,Pilati,45.922503,16.155382,336
336_24,Pilati,45.922415,16.155372,336
336,Pilati,45.922459,16.155377,
337_23,Lozaki,45.927926,16.152190,337
337_24,Lozaki,45.927852,16.152213,337
337,Lozaki,45.927889,16.152201,
338_23,Čergari,45.935007,16.149210,338
338_24,Čergari,45.934963,16.149253,338
338,Čergari,45.934985,16.149232,
339_23,Glavnica Donja okr.,45.937863,16.143688,339
339_24,Glavnica Donja okr.,45.937863,16.143688,339
339,Glavnica Donja okr.,45.937863,16.143688,
340_23,Filipčići,45.912255,16.167862,340
340_24,Filipčići,45.912242,16.167757,340
340,Filipčići,45.912249,16.167810,
341_23,Bastalićeva II.,45.918712,16.169685,341
341_24,Bastalićeva II.,45.919016,16.169922,341
341,Bastalićeva II.,45.918864,16.169803,
342_23,Prajzov brijeg,45.924064,16.170774,342
342_24,Prajzov brijeg,45.923933,16.170746,342
342,Prajzov brijeg,45.923998,16.170760,
343_23,Bahlenova,45.929606,16.170352,343
343_24,Bahlenova,45.929713,16.170287,343
343,Bahlenova,45.929659,16.170319,
344_23,Moravče-Benkova,45.936547,16.167689,344
344_24,Moravče-Benkova,45.936557,16.167667,344
344,Moravče-Benkova,45.936552,16.167678,
345_22,Ninska,45.826533,16.110713,345
345_24,Ninska,45.826662,16.110753,345
345_32,Ninska,45.826502,16.110878,345
345_42,Ninska,45.826502,16.110878,345
345_52,Ninska,45.826502,16.110878,345
345,Ninska,45.826540,16.110820,
346_22,Sesvete-izlaz,45.825442,16.109511,346
346,Sesvete-izlaz,45.825442,16.109511,
347_23,Obrež,45.872160,16.145129,347
347_24,Obrež,45.871797,16.145255,347
347,Obrež,45.871979,16.145192,
348_23,Vojnovićeva,45.877129,16.141392,348
348_24,Vojnovićeva,45.876995,16.141450,348
348,Vojnovićeva,45.877062,16.141421,
349_23,Gajci-Lovre Sedinića,45.884512,16.137787,349
349_24,Gajci-Lovre Sedinića,45.884444,16.137795,349
349,Gajci-Lovre Sedinića,45.884478,16.137791,
350_23,Vurnovec-B.B.-Kusova,45.888799,16.136660,350
350_24,Vurnovec-B.B.-Kusova,45.888503,16.136491,350
350,Vurnovec-B.B.-Kusova,45.888651,16.136576,
351_23,Prepuštovec-Vurnovec,45.891780,16.133676,351
351_24,Prepuštovec-Vurnovec,45.891285,16.133819,351
351,Prepuštovec-Vurnovec,45.891533,16.133748,
352_23,Škanići,45.897253,16.133781,352
352_24,Škanići,45.897239,16.133786,352
352,Škanići,45.897246,16.133784,
353_23,Prepuštovec-izletišt,45.901157,16.132373,353
353_24,Prepuštovec-izletišt,45.901037,16.132379,353
353,Prepuštovec-izletišt,45.901097,16.132376,
354_23,Put za Kašinu,45.903675,16.131057,354
354_24,Put za Kašinu,45.904248,16.130473,354
354,Put za Kašinu,45.903961,16.130765,
355_23,Frljur-Blaguška,45.908724,16.131220,355
355_24,Frljur-Blaguška,45.908727,16.131234,355
355,Frljur-Blaguška,45.908725,16.131227,
356_23,Pustički,45.911692,16.133151,356
356_24,Pustički,45.911611,16.133126,356
356,Pustički,45.911652,16.133139,
357_23,Blaguša 12,45.920471,16.131644,357
357_24,Blaguša 12,45.920222,16.131742,357
357,Blaguša 12,45.920346,16.131693,
358_23,Blaguša-kapela,45.924278,16.131097,358
358_24,Blaguša-kapela,45.924147,16.131096,358
358,Blaguša-kapela,45.924213,16.131097,
359_23,Blaguša - centar,45.929691,16.130350,359
359_24,Blaguša - centar,45.929625,16.130349,359
359,Blaguša - centar,45.929658,16.130349,
360_21,Ulica Kaktusa,45.826422,16.084565,360
360_22,Ulica Kaktusa,45.826338,16.085860,360
360,Ulica Kaktusa,45.826380,16.085212,
361_21,Zagrebačka 103,45.826167,16.089982,361
361,Zagrebačka 103,45.826167,16.089982,
362_21,Brestovečka,45.827570,16.097914,362
362_22,Brestovečka,45.827647,16.097482,362
362,Brestovečka,45.827608,16.097698,
363_23,Anke Krizmanić,45.830051,16.096483,363
363_24,Anke Krizmanić,45.829799,16.097034,363
363,Anke Krizmanić,45.829925,16.096759,
365_23,Brestovečka 100,45.837037,16.089683,365
365_24,Brestovečka 100,45.836663,16.089756,365
365,Brestovečka 100,45.836850,16.089719,
366_23,Brestovečka 128,45.839594,16.089065,366
366_24,Brestovečka 128,45.838965,16.089021,366
366,Brestovečka 128,45.839279,16.089043,
368_21,Lužan,45.888784,16.188223,368
368_22,Lužan,45.888971,16.188378,368
368,Lužan,45.888878,16.188301,
369_21,Grgati 8,45.890102,16.193131,369
369_22,Grgati 8,45.890139,16.193142,369
369,Grgati 8,45.890121,16.193137,
370_21,Lužan-Zeleni vijenac,45.885707,16.196382,370
370_22,Lužan-Zeleni vijenac,45.885721,16.196373,370
370,Lužan-Zeleni vijenac,45.885714,16.196378,
371_23,Kašinska-rasadnik,45.841754,16.109100,371
371_24,Kašinska-rasadnik,45.842126,16.108960,371
371,Kašinska-rasadnik,45.841940,16.109030,
372_23,Vugrovečka 21,45.848411,16.110574,372
372_24,Vugrovečka 21,45.848500,16.110558,372
372,Vugrovečka 21,45.848455,16.110566,
373_23,Vugrovečka 42,45.851519,16.111617,373
373_24,Vugrovečka 42,45.851517,16.111626,373
373,Vugrovečka 42,45.851518,16.111621,
374_23,Vugrovečka 70,45.854855,16.112701,374
374,Vugrovečka 70,45.854855,16.112701,
375_21,Aleja mira,45.861768,16.115555,375
375_22,Aleja mira,45.861350,16.115920,375
375_23,Aleja mira,45.862712,16.114912,375
375_24,Aleja mira,45.863001,16.114899,375
375,Aleja mira,45.862208,16.115321,
376_23,Mark.polje-raskrižje,45.870491,16.113363,376
376_24,Mark.polje-raskrižje,45.870290,16.113348,376
376,Mark.polje-raskrižje,45.870390,16.113356,
377_23,Škola Vugrovec,45.876708,16.111469,377
377_24,Škola Vugrovec,45.877118,16.111321,377
377,Škola Vugrovec,45.876913,16.111395,
378_23,Vugrovec kod crkve,45.881289,16.108784,378
378_24,Vugrovec kod crkve,45.881529,16.108595,378
378,Vugrovec kod crkve,45.881409,16.108689,
379_23,Vugrovec D.-groblje,45.884689,16.106272,379
379_24,Vugrovec D.-groblje,45.884546,16.106281,379
379,Vugrovec D.-groblje,45.884618,16.106276,
380_23,Vugrovečka-Grljakova,45.891264,16.100992,380
380_24,Vugrovečka-Grljakova,45.891207,16.101034,380
380,Vugrovečka-Grljakova,45.891235,16.101013,
381_23,Gornji Vugrovec 58,45.892447,16.095364,381
381_24,Gornji Vugrovec 58,45.892412,16.095374,381
381,Gornji Vugrovec 58,45.892429,16.095369,
382_23,Židaki,45.893545,16.089675,382
382_24,Židaki,45.893571,16.089629,382
382,Židaki,45.893558,16.089652,
383_23,Rožići,45.895365,16.084881,383
383_24,Rožići,45.895311,16.085086,383
383,Rožići,45.895338,16.084984,
384_23,Goranec,45.897248,16.078668,384
384_24,Goranec,45.897190,16.078601,384
384,Goranec,45.897219,16.078634,
385_24,Bistrička - O.Š.,45.830495,16.106914,385
385,Bistrička - O.Š.,45.830495,16.106914,
386_23,Pantovčak 56,45.817178,15.961011,386
386_24,Pantovčak 56,45.816860,15.961030,386
386,Pantovčak 56,45.817019,15.961020,
387_23,Pantovčak 82,45.819430,15.960527,387
387_24,Pantovčak 82,45.819639,15.960486,387
387,Pantovčak 82,45.819534,15.960507,
388_23,Pantovčak 102,45.821835,15.960050,388
388_24,Pantovčak 102,45.822706,15.960141,388
388,Pantovčak 102,45.822270,15.960095,
389_23,Pantovčak 128,45.824615,15.961087,389
389_24,Pantovčak 128,45.825084,15.961262,389
389,Pantovčak 128,45.824850,15.961174,
390_23,Pantovčak 156,45.828047,15.961392,390
390_24,Pantovčak 156,45.828213,15.961302,390
390,Pantovčak 156,45.828130,15.961347,
391_24,Pantovčak 180,45.832245,15.962282,391
391,Pantovčak 180,45.832245,15.962282,
392_23,Zelengaj,45.835247,15.962508,392
392_24,Zelengaj,45.834961,15.962467,392
392,Zelengaj,45.835104,15.962487,
393_23,Predsjednički dvori,45.837799,15.961562,393
393_24,Predsjednički dvori,45.837431,15.961769,393
393,Predsjednički dvori,45.837615,15.961666,
394_23,Pantovčak 241,45.840419,15.959346,394
394_24,Pantovčak 241,45.840444,15.959235,394
394,Pantovčak 241,45.840431,15.959290,
395_21,Pantovčak,45.845719,15.957804,395
395_23,Pantovčak,45.845558,15.958134,395
395_24,Pantovčak,45.845570,15.958194,395
395,Pantovčak,45.845616,15.958044,
396_23,Nazorova 26,45.815959,15.967060,396
396_24,Nazorova 26,45.815867,15.967106,396
396,Nazorova 26,45.815913,15.967083,
397_23,Nazorova 54,45.817719,15.966666,397
397_24,Nazorova 54,45.817748,15.966596,397
397,Nazorova 54,45.817733,15.966631,
398_23,Tuškanac,45.821267,15.969195,398
398_24,Tuškanac,45.821209,15.968836,398
398,Tuškanac,45.821238,15.969016,
399_23,Paunovac,45.825292,15.970814,399
399_24,Paunovac,45.824719,15.970363,399
399,Paunovac,45.825005,15.970589,
400_23,Vijenac,45.829353,15.971548,400
400_24,Vijenac,45.827964,15.972176,400
400,Vijenac,45.828658,15.971862,
401_23,Tuškanac 78,45.831377,15.971427,401
401_24,Tuškanac 78,45.830451,15.971154,401
401,Tuškanac 78,45.830914,15.971290,
402_23,Cmrok,45.835293,15.971193,402
402_24,Cmrok,45.835631,15.971194,402
402,Cmrok,45.835462,15.971193,
403_23,Gornje Prekrižje 40,45.840097,15.969030,403
403_24,Gornje Prekrižje 40,45.840053,15.968961,403
403,Gornje Prekrižje 40,45.840075,15.968995,
404_23,Gornje Prekrižje 55,45.843868,15.966135,404
404_24,Gornje Prekrižje 55,45.843874,15.966149,404
404,Gornje Prekrižje 55,45.843871,15.966142,
405_23,Donje Prekrižje,45.843090,15.962565,405
405_24,Donje Prekrižje,45.842933,15.962766,405
405,Donje Prekrižje,45.843012,15.962665,
406_23,Šestinski vrh,45.846916,15.955194,406
406_24,Šestinski vrh,45.846688,15.955494,406
406,Šestinski vrh,45.846802,15.955344,
407_23,Šestinski vijenac 48,45.848987,15.953511,407
407_24,Šestinski vijenac 48,45.848713,15.953574,407
407,Šestinski vijenac 48,45.848850,15.953543,
408_23,Šestine-centar,45.851966,15.950208,408
408_24,Šestine-centar,45.852435,15.949955,408
408,Šestine-centar,45.852200,15.950081,
409_23,Potočani,45.855006,15.954817,409
409_24,Potočani,45.855026,15.954891,409
409,Potočani,45.855016,15.954854,
410_23,Mlinovi 149,45.851501,15.959115,410
410,Mlinovi 149,45.851501,15.959115,
411_24,Mlinovi 124,45.850252,15.960288,411
411,Mlinovi 124,45.850252,15.960288,
412_23,Mlinovi,45.846983,15.965608,412
412_24,Mlinovi,45.847069,15.965745,412
412,Mlinovi,45.847026,15.965676,
413_23,Mlinovi 23,45.844431,15.971470,413
413_24,Mlinovi 23,45.844642,15.971205,413
413,Mlinovi 23,45.844536,15.971337,
414_23,Bolnica Goljak,45.818393,15.963832,414
414_24,Bolnica Goljak,45.818592,15.964000,414
414,Bolnica Goljak,45.818493,15.963916,
415_23,Zelengaj 25,45.821473,15.965768,415
415_24,Zelengaj 25,45.820879,15.965358,415
415,Zelengaj 25,45.821176,15.965563,
416_23,II. Kraljevec,45.826971,15.968331,416
416_24,II. Kraljevec,45.826620,15.968360,416
416,II. Kraljevec,45.826795,15.968346,
417_23,Kraljevec,45.830592,15.968771,417
417_24,Kraljevec,45.830592,15.968771,417
417,Kraljevec,45.830592,15.968771,
418_23,Jandrićeva,45.837291,15.977409,418
418_24,Jandrićeva,45.837129,15.977208,418
418,Jandrićeva,45.837210,15.977309,
419_23,Dom Ksaver,45.841659,15.971686,419
419_24,Dom Ksaver,45.841659,15.971686,419
419,Dom Ksaver,45.841659,15.971686,
420_23,Kaptol,45.815748,15.978558,420
420_24,Kaptol,45.815174,15.978513,420
420_25,Kaptol,45.815754,15.978558,420
420_27,Kaptol,45.815765,15.978570,420
420_28,Kaptol,45.815066,15.978462,420
420_29,Kaptol,45.815298,15.978477,420
420,Kaptol,45.815468,15.978523,
421_23,Nova ves 16,45.820270,15.978057,421
421,Nova ves 16,45.820270,15.978057,
422_23,Znikina,45.824659,15.977467,422
422_24,Znikina,45.824119,15.977617,422
422,Znikina,45.824389,15.977542,
423_23,Medvedgradska-škola,45.827649,15.978332,423
423_24,Medvedgradska-škola,45.827657,15.978316,423
423,Medvedgradska-škola,45.827653,15.978324,
424_23,Mlinarska,45.822338,15.975564,424
424_24,Mlinarska,45.822313,15.975582,424
424,Mlinarska,45.822326,15.975573,
425_21,Ilirski trg,45.819228,15.975062,425
425_23,Ilirski trg,45.819391,15.975290,425
425_24,Ilirski trg,45.819243,15.975181,425
425,Ilirski trg,45.819287,15.975178,
426_23,Becićeve stube,45.827200,15.975505,426
426_24,Becićeve stube,45.827042,15.975642,426
426,Becićeve stube,45.827121,15.975574,
427_23,Jurjevska 64,45.830836,15.975339,427
427_24,Jurjevska 64,45.830533,15.975411,427
427,Jurjevska 64,45.830684,15.975375,
428_23,Jurjevska 77,45.832803,15.975274,428
428_24,Jurjevska 77,45.832597,15.975368,428
428,Jurjevska 77,45.832700,15.975321,
429_24,KAPTOL CENTAR,45.820333,15.976493,429
429,KAPTOL CENTAR,45.820333,15.976493,
430_21,Medveščak,45.818815,15.979157,430
430_22,Medveščak,45.819556,15.979902,430
430,Medveščak,45.819185,15.979529,
431_23,Rockefellerova,45.822758,15.981579,431
431_24,Rockefellerova,45.823466,15.982106,431
431,Rockefellerova,45.823112,15.981843,
432_23,Bijenička,45.825463,15.985141,432
432_24,Bijenička,45.824606,15.984907,432
432,Bijenička,45.825035,15.985024,
433_23,Inst. R.Bošković,45.829286,15.985760,433
433_24,Inst. R.Bošković,45.828798,15.985260,433
433,Inst. R.Bošković,45.829042,15.985510,
434_23,Mirogoj-Arkade,45.832734,15.983861,434
434_24,Mirogoj-Arkade,45.831759,15.984145,434
434,Mirogoj-Arkade,45.832247,15.984003,
435_23,Mirogoj,45.835515,15.983843,435
435_24,Mirogoj,45.835037,15.983837,435
435,Mirogoj,45.835276,15.983840,
436_23,Remetska 19,45.838403,15.982489,436
436_24,Remetska 19,45.838473,15.982450,436
436,Remetska 19,45.838438,15.982470,
437_23,Krematorij,45.845463,15.982000,437
437_24,Krematorij,45.845217,15.981710,437
437,Krematorij,45.845340,15.981855,
438_21,RT Jankomir,45.798837,15.875003,438
438_22,RT Jankomir,45.798824,15.875000,438
438,RT Jankomir,45.798830,15.875001,
439_21,Savska Opatovina,45.796985,15.888171,439
439_22,Savska Opatovina,45.797528,15.886598,439
439,Savska Opatovina,45.797256,15.887385,
440_21,Svilkovići,45.796950,15.893599,440
440_22,Svilkovići,45.797337,15.890807,440
440_24,Svilkovići,45.797038,15.893678,440
440,Svilkovići,45.797108,15.892695,
441_21,Slavenskog,45.796547,15.901332,441
441_22,Slavenskog,45.797160,15.898627,441
441,Slavenskog,45.796853,15.899979,
442_21,Zagrebačka,45.795977,15.909984,442
442_22,Zagrebačka,45.796448,15.907295,442
442_23,Zagrebačka,45.796951,15.909370,442
442_24,Zagrebačka,45.795545,15.908087,442
442,Zagrebačka,45.796230,15.908684,
443_21,Rudeška,45.794957,15.920848,443
443_22,Rudeška,45.795577,15.918521,443
443,Rudeška,45.795267,15.919685,
444_21,Hrvatskog sokola,45.794720,15.924017,444
444_22,Hrvatskog sokola,45.795246,15.921547,444
444,Hrvatskog sokola,45.794983,15.922782,
445_21,Dragutina Golika,45.794005,15.932644,445
445_22,Dragutina Golika,45.794530,15.929975,445
445,Dragutina Golika,45.794267,15.931309,
446_21,Fallerovo,45.793707,15.938225,446
446_22,Fallerovo,45.794088,15.935459,446
446,Fallerovo,45.793898,15.936842,
447_21,Ujevićeva,45.794226,15.950475,447
447_22,Ujevićeva,45.794359,15.948150,447
447,Ujevićeva,45.794292,15.949313,
448_21,Vjesnik,45.793949,15.960508,448
448_22,Vjesnik,45.794053,15.960237,448
448,Vjesnik,45.794001,15.960373,
449_21,Marohnićeva,45.794219,15.969869,449
449_22,Marohnićeva,45.794312,15.967945,449
449,Marohnićeva,45.794265,15.968907,
450_21,N.S.knjižnica,45.794656,15.980750,450
450_22,N.S.knjižnica,45.795006,15.978192,450
450_23,N.S.knjižnica,45.795537,15.979747,450
450_24,N.S.knjižnica,45.793979,15.979006,450
450,N.S.knjižnica,45.794794,15.979424,
451_21,Tr. Savica,45.795378,15.992213,451
451_22,Tr. Savica,45.795424,15.989348,451
451,Tr. Savica,45.795401,15.990780,
452_21,Rakušina,45.795862,16.006766,452
452_22,Rakušina,45.796336,16.006263,452
452,Rakušina,45.796099,16.006514,
453_21,Radnička,45.796539,16.020484,453
453_22,Radnička,45.796652,16.014301,453
453_23,Radnička,45.797682,16.017114,453
453_24,Radnička,45.796089,16.019183,453
453,Radnička,45.796740,16.017770,
454_21,Končar,45.796919,16.023855,454
454_22,Končar,45.797157,16.023357,454
454,Končar,45.797038,16.023606,
455_21,Čavićeva,45.796663,16.028761,455
455_22,Čavićeva,45.797307,16.027023,455
455,Čavićeva,45.796985,16.027892,
457_21,Kozari Bok,45.798312,16.043606,457
457_22,Kozari Bok,45.798347,16.043166,457
457_23,Kozari Bok,45.798784,16.044554,457
457_25,Kozari Bok,45.798242,16.043615,457
457_26,Kozari Bok,45.798630,16.044873,457
457,Kozari Bok,45.798463,16.043963,
458_21,Zelena tržnica,45.800137,16.050067,458
458_23,Zelena tržnica,45.801321,16.048836,458
458_26,Zelena tržnica,45.800077,16.048221,458
458,Zelena tržnica,45.800511,16.049041,
459_21,RTerminali Žitnjak,45.800614,16.057598,459
459_22,RTerminali Žitnjak,45.800587,16.057171,459
459,RTerminali Žitnjak,45.800601,16.057385,
460_23,Ciglanska,45.814643,15.927179,460
460_24,Ciglanska,45.814323,15.927283,460
460,Ciglanska,45.814483,15.927231,
461_23,Graberje,45.817797,15.926665,461
461_24,Graberje,45.817725,15.926614,461
461,Graberje,45.817761,15.926639,
462_23,Graberje 48,45.819566,15.922956,462
462_24,Graberje 48,45.819721,15.922831,462
462,Graberje 48,45.819643,15.922894,
463_23,Kotoripska,45.822685,15.917974,463
463_24,Kotoripska,45.822612,15.917934,463
463,Kotoripska,45.822648,15.917954,
464_23,Millerova,45.824771,15.916759,464
464_24,Millerova,45.824824,15.916593,464
464,Millerova,45.824798,15.916676,
465_23,Graberje-okretište,45.826798,15.914193,465
465_24,Graberje-okretište,45.826778,15.914260,465
465,Graberje-okretište,45.826788,15.914227,
467_21,Kustošijanska,45.813851,15.929201,467
467_22,Kustošijanska,45.813770,15.928246,467
467_32,Kustošijanska,45.813770,15.928246,467
467_52,Kustošijanska,45.813770,15.928246,467
467_62,Kustošijanska,45.813770,15.928246,467
467,Kustošijanska,45.813786,15.928437,
468_21,MUP,45.812477,15.922028,468
468_22,MUP,45.812205,15.920109,468
468,MUP,45.812341,15.921068,
469_21,Samoborska,45.812225,15.861391,469
469_22,Samoborska,45.812608,15.860074,469
469_23,Samoborska,45.812912,15.861898,469
469_24,Samoborska,45.811795,15.860202,469
469,Samoborska,45.812385,15.860892,
470_21,Vučak,45.813881,15.852630,470
470_22,Vučak,45.814456,15.849874,470
470,Vučak,45.814169,15.851252,
471_21,ZET-garaža Pod.,45.814539,15.846921,471
471_22,ZET-garaža Pod.,45.814770,15.844950,471
471,ZET-garaža Pod.,45.814654,15.845935,
472_21,Podsused - most,45.815152,15.836132,472
472_22,Podsused - most,45.815206,15.836690,472
472,Podsused - most,45.815179,15.836411,
473_21,Medpotoki,45.813386,15.878548,473
473_22,Medpotoki,45.813631,15.876575,473
473,Medpotoki,45.813509,15.877561,
475_21,Bolnica Vrapče,45.814952,15.895295,475
475_22,Bolnica Vrapče,45.815101,15.895184,475
475,Bolnica Vrapče,45.815027,15.895240,
476_21,Dudovec,45.816766,15.890496,476
476_22,Dudovec,45.816888,15.890510,476
476,Dudovec,45.816827,15.890503,
477_21,Bolnička-Gospodska,45.817963,15.885889,477
477_22,Bolnička-Gospodska,45.818071,15.885463,477
477,Bolnička-Gospodska,45.818017,15.885676,
478_21,Karažnik,45.819116,15.880308,478
478_22,Karažnik,45.819027,15.881163,478
478,Karažnik,45.819072,15.880736,
479_22,Čileanska,45.819318,15.875383,479
479,Čileanska,45.819318,15.875383,
480_23,Manterovčak,45.819145,15.905991,480
480_24,Manterovčak,45.819281,15.905956,480
480,Manterovčak,45.819213,15.905973,
481_23,Jalšina,45.823100,15.906630,481
481_24,Jalšina,45.822849,15.906612,481
481,Jalšina,45.822975,15.906621,
482_23,Margalići,45.826218,15.905551,482
482_24,Margalići,45.826758,15.905296,482
482,Margalići,45.826488,15.905424,
484_23,Horvatnica,45.832635,15.903592,484
484_24,Horvatnica,45.832802,15.903549,484
484,Horvatnica,45.832719,15.903570,
485_23,Vrapčanska 269,45.838487,15.901064,485
485_24,Vrapčanska 269,45.838499,15.900916,485
485,Vrapčanska 269,45.838493,15.900990,
486_23,Gornje Vrapče,45.842992,15.899857,486
486_24,Gornje Vrapče,45.842952,15.899685,486
486,Gornje Vrapče,45.842972,15.899771,
487_23,Divoselska,45.819844,15.927202,487
487_24,Divoselska,45.820080,15.927023,487
487,Divoselska,45.819962,15.927112,
488_23,Skočilovići,45.822238,15.925785,488
488_24,Skočilovići,45.821580,15.925980,488
488,Skočilovići,45.821909,15.925882,
489_23,Kustošijski venec,45.825049,15.922618,489
489_24,Kustošijski venec,45.825465,15.922289,489
489,Kustošijski venec,45.825257,15.922454,
490_23,Završje,45.831160,15.922333,490
490_24,Završje,45.831301,15.922031,490
490,Završje,45.831231,15.922182,
491_23,Krvarić - okretište,45.841442,15.914307,491
491_24,Krvarić - okretište,45.841442,15.914307,491
491,Krvarić - okretište,45.841442,15.914307,
492_23,Ulica Črnomerec 46,45.820084,15.935201,492
492_24,Ulica Črnomerec 46,45.819504,15.935496,492
492,Ulica Črnomerec 46,45.819794,15.935349,
493_23,Strma cesta,45.823521,15.934718,493
493_24,Strma cesta,45.824036,15.934099,493
493,Strma cesta,45.823779,15.934409,
494_23,Josipa Šabana,45.827957,15.931164,494
494_24,Josipa Šabana,45.828553,15.930959,494
494,Josipa Šabana,45.828255,15.931061,
495_23,Fraterščica 83,45.832233,15.930297,495
495_24,Fraterščica 83,45.832161,15.930214,495
495,Fraterščica 83,45.832197,15.930255,
496_23,Miroslava Vaupotića,45.835831,15.929576,496
496_24,Miroslava Vaupotića,45.835824,15.929536,496
496,Miroslava Vaupotića,45.835827,15.929556,
497_23,Lubenjaki,45.840101,15.928246,497
497_24,Lubenjaki,45.840631,15.927940,497
497,Lubenjaki,45.840366,15.928093,
498_23,Gorenci,45.843909,15.927053,498
498_24,Gorenci,45.843595,15.926926,498
498,Gorenci,45.843752,15.926989,
499_23,Mikulići-Talani,45.847415,15.928822,499
499_24,Mikulići-Talani,45.847735,15.928721,499
499,Mikulići-Talani,45.847575,15.928771,
500_23,Bolnica Sveti Duh,45.819858,15.937881,500
500_24,Bolnica Sveti Duh,45.819735,15.937722,500
500,Bolnica Sveti Duh,45.819796,15.937801,
501_23,Orahovac,45.823457,15.938506,501
501_24,Orahovac,45.823905,15.938214,501
501,Orahovac,45.823681,15.938360,
502_23,Čukovići,45.827018,15.938032,502
502_24,Čukovići,45.826997,15.938090,502
502,Čukovići,45.827007,15.938061,
503_23,Trsje,45.830827,15.938949,503
503_24,Trsje,45.830096,15.938700,503
503,Trsje,45.830461,15.938824,
504_23,Bijenik - crkva,45.833272,15.938568,504
504_24,Bijenik - crkva,45.833099,15.938614,504
504,Bijenik - crkva,45.833186,15.938591,
505_23,Čičkovina,45.834644,15.937288,505
505_24,Čičkovina,45.834762,15.937244,505
505,Čičkovina,45.834703,15.937266,
506_23,Viktora Vide,45.838604,15.935803,506
506_24,Viktora Vide,45.838259,15.935727,506
506,Viktora Vide,45.838431,15.935765,
507_23,Selišće,45.843927,15.936382,507
507_24,Selišće,45.844300,15.936360,507
507,Selišće,45.844113,15.936371,
508_23,Trpučev breg,45.847408,15.938793,508
508_24,Trpučev breg,45.847233,15.938747,508
508,Trpučev breg,45.847321,15.938770,
509_23,Lukšići 30,45.850194,15.938595,509
509_24,Lukšići 30,45.850139,15.938568,509
509,Lukšići 30,45.850166,15.938581,
510_23,Lukšić-okretište,45.853048,15.935213,510
510_24,Lukšić-okretište,45.853048,15.935213,510
510,Lukšić-okretište,45.853048,15.935213,
511_21,Stare Gajnice,45.819040,15.871915,511
511_22,Stare Gajnice,45.819077,15.870776,511
511,Stare Gajnice,45.819059,15.871345,
512_23,Gajnički vidikovac,45.820700,15.872077,512
512_24,Gajnički vidikovac,45.820438,15.871398,512
512,Gajnički vidikovac,45.820569,15.871737,
513_21,Rušiščak,45.830529,15.877139,513
513_22,Rušiščak,45.830465,15.876994,513
513,Rušiščak,45.830497,15.877066,
514_21,Borčec,45.832287,15.880386,514
514_22,Borčec,45.832224,15.880598,514
514,Borčec,45.832256,15.880492,
515_24,Gospodska 11,45.813691,15.886617,515
515,Gospodska 11,45.813691,15.886617,
516_23,Bukoščak,45.821063,15.850070,516
516_24,Bukoščak,45.820369,15.849368,516
516,Bukoščak,45.820716,15.849719,
517_23,Bizek I,45.824354,15.854311,517
517_24,Bizek I,45.824514,15.854432,517
517,Bizek I,45.824434,15.854372,
518_23,Bizek III,45.827408,15.859353,518
518_24,Bizek III,45.827388,15.859358,518
518,Bizek III,45.827398,15.859356,
519_23,Lisičina,45.826288,15.861707,519
519_24,Lisičina,45.826295,15.861704,519
519,Lisičina,45.826291,15.861705,
520_21,Gustava Krkleca,45.797927,15.900566,520
520_22,Gustava Krkleca,45.798162,15.901020,520
520,Gustava Krkleca,45.798045,15.900793,
521_21,Antuna Šoljana,45.801309,15.902994,521
521_22,Antuna Šoljana,45.801929,15.902019,521
521,Antuna Šoljana,45.801619,15.902507,
522_21,Tržnica Špansko,45.801935,15.898515,522
522_22,Tržnica Špansko,45.802080,15.896990,522
522_23,Tržnica Špansko,45.802674,15.897952,522
522,Tržnica Špansko,45.802230,15.897819,
523_21,Matije Vlačića,45.802054,15.894972,523
523_22,Matije Vlačića,45.802195,15.893198,523
523,Matije Vlačića,45.802125,15.894085,
524_21,Špansko,45.802291,15.889258,524
524_22,Špansko,45.802335,15.889837,524
524_25,Špansko,45.802335,15.889837,524
524,Špansko,45.802320,15.889644,
526_23,Remetinečka os.škola,45.774903,15.953310,526
526_24,Remetinečka os.škola,45.774645,15.953179,526
526,Remetinečka os.škola,45.774774,15.953244,
527_23,Savski gaj XII.,45.772080,15.951603,527
527_24,Savski gaj XII.,45.772015,15.951402,527
527,Savski gaj XII.,45.772048,15.951503,
528_21,Naletilićeva,45.767160,15.947098,528
528_22,Naletilićeva,45.767165,15.945491,528
528_24,Naletilićeva,45.765749,15.946060,528
528,Naletilićeva,45.766691,15.946216,
529_24,Brezovička 28,45.764510,15.937115,529
529,Brezovička 28,45.764510,15.937115,
530_21,Bašćanske ploče,45.757125,15.933938,530
530_23,Bašćanske ploče,45.757471,15.932644,530
530_24,Bašćanske ploče,45.757583,15.932593,530
530,Bašćanske ploče,45.757393,15.933058,
531_21,Botinec,45.755224,15.938467,531
531_22,Botinec,45.755224,15.938467,531
531,Botinec,45.755224,15.938467,
532_21,Zlatareva zlata,45.757435,15.943622,532
532_23,Zlatareva zlata,45.757240,15.944370,532
532_24,Zlatareva zlata,45.757221,15.944384,532
532,Zlatareva zlata,45.757299,15.944125,
533_23,Lukoranska,45.760339,15.945712,533
533,Lukoranska,45.760339,15.945712,
534_21,Karlovačka 18,45.766662,15.931974,534
534_22,Karlovačka 18,45.766696,15.931916,534
534,Karlovačka 18,45.766679,15.931945,
535_21,Karlovačka 97,45.765152,15.927131,535
535_22,Karlovačka 97,45.764805,15.925800,535
535,Karlovačka 97,45.764978,15.926466,
536_21,Karlovačka 157,45.763395,15.917708,536
536_22,Karlovačka 157,45.763289,15.917115,536
536,Karlovačka 157,45.763342,15.917412,
537_23,Petlja - ulaz,45.759629,15.910932,537
537_24,Petlja - ulaz,45.759608,15.910148,537
537,Petlja - ulaz,45.759619,15.910540,
538_23,Petlja - izlaz,45.759768,15.896273,538
538_24,Petlja - izlaz,45.760707,15.899192,538
538,Petlja - izlaz,45.760237,15.897732,
539_23,Hrastovička,45.758339,15.892605,539
539_24,Hrastovička,45.757830,15.892320,539
539,Hrastovička,45.758085,15.892462,
540_21,Put za Leskovac,45.754260,15.886049,540
540_23,Put za Leskovac,45.754072,15.885751,540
540,Put za Leskovac,45.754166,15.885900,
541_23,Dolenica,45.752941,15.883799,541
541_24,Dolenica,45.752428,15.882818,541
541,Dolenica,45.752684,15.883309,
542_23,MERCATONE,45.750056,15.879128,542
542_24,MERCATONE,45.749580,15.878168,542
542,MERCATONE,45.749818,15.878648,
543_21,Stupnik-crkva,45.745025,15.870923,543
543_22,Stupnik-crkva,45.745016,15.870715,543
543,Stupnik-crkva,45.745020,15.870819,
544_21,Donjostupnička,45.745304,15.867389,544
544_22,Donjostupnička,45.745612,15.866993,544
544,Donjostupnička,45.745458,15.867191,
545_21,Meglajci,45.749761,15.854272,545
545_22,Meglajci,45.749999,15.852455,545
545,Meglajci,45.749880,15.853364,
546_21,Stupnik-škola,45.751627,15.847171,546
546_22,Stupnik-škola,45.751596,15.847445,546
546,Stupnik-škola,45.751612,15.847308,
548_21,Lučko-centar,45.761257,15.882351,548
548_22,Lučko-centar,45.760938,15.885313,548
548,Lučko-centar,45.761097,15.883832,
549_25,Lučko,45.769845,15.884047,549
549_26,Lučko,45.769845,15.884047,549
549,Lučko,45.769845,15.884047,
550_23,Tržnica Jarun,45.789896,15.930184,550
550_24,Tržnica Jarun,45.789884,15.930239,550
550,Tržnica Jarun,45.789890,15.930212,
551_23,Crkva S.Mati Slobode,45.786518,15.928677,551
551_24,Crkva S.Mati Slobode,45.786060,15.928082,551
551,Crkva S.Mati Slobode,45.786289,15.928379,
552_23,Sveti Duh,45.812533,15.942130,552
552,Sveti Duh,45.812533,15.942130,
553_21,Zagorska,45.806993,15.943901,553
553_22,Zagorska,45.807082,15.941756,553
553_23,Zagorska,45.807774,15.942512,553
553_24,Zagorska,45.806310,15.942814,553
553,Zagorska,45.807040,15.942746,
554_23,Baštijanova,45.801854,15.943368,554
554_24,Baštijanova,45.800804,15.943368,554
554,Baštijanova,45.801329,15.943368,
556_24,Kazalište Trešnja,45.793340,15.944173,556
556,Kazalište Trešnja,45.793340,15.944173,
565_21,Islandska,45.772439,15.988830,565
565_22,Islandska,45.772688,15.989916,565
565_23,Islandska,45.773265,15.990918,565
565_24,Islandska,45.771935,15.990624,565
565,Islandska,45.772582,15.990072,
566_21,Vatikanska,45.767766,15.992178,566
566_23,Vatikanska,45.768711,15.991183,566
566_24,Vatikanska,45.767079,15.990959,566
566,Vatikanska,45.767852,15.991440,
567_21,Vatikanska-Sv.Mateja,45.767983,15.998913,567
567_22,Vatikanska-Sv.Mateja,45.768283,15.998494,567
567,Vatikanska-Sv.Mateja,45.768133,15.998704,
568_21,Kauzlarićev prilaz,45.764250,16.002236,568
568_22,Kauzlarićev prilaz,45.764250,16.002236,568
568_23,Kauzlarićev prilaz,45.765205,16.002383,568
568_27,Kauzlarićev prilaz,45.765171,16.002383,568
568,Kauzlarićev prilaz,45.764719,16.002309,
569_21,R.Terminali Jankomir,45.797328,15.875996,569
569_22,R.Terminali Jankomir,45.797522,15.871717,569
569,R.Terminali Jankomir,45.797425,15.873857,
570_23,KING CROSS,45.797704,15.857841,570
570_24,KING CROSS,45.797947,15.857404,570
570,KING CROSS,45.797825,15.857622,
571_23,Okt. Miletića,45.802738,15.857976,571
571_24,Okt. Miletića,45.800311,15.857017,571
571,Okt. Miletića,45.801525,15.857496,
572_23,Kovinska,45.807263,15.859183,572
572_24,Kovinska,45.805436,15.858419,572
572,Kovinska,45.806350,15.858801,
573_21,Josipa Lončara,45.811719,15.869931,573
573_22,Josipa Lončara,45.812023,15.868657,573
573,Josipa Lončara,45.811871,15.869294,
574_21,Mokrovićeva,45.811317,15.873257,574
574_22,Mokrovićeva,45.811400,15.873093,574
574,Mokrovićeva,45.811359,15.873175,
575_21,Jankomir,45.811580,15.880488,575
575_22,Jankomir,45.811518,15.878728,575
575_24,Jankomir,45.809941,15.878456,575
575,Jankomir,45.811013,15.879224,
576_21,Stenjevec,45.811725,15.884518,576
576_22,Stenjevec,45.811781,15.883581,576
576,Stenjevec,45.811753,15.884049,
577_25,Trg Mažuranića,45.808305,15.969442,577
577_26,Trg Mažuranića,45.807681,15.969265,577
577,Trg Mažuranića,45.807993,15.969354,
578_21,Adžijina,45.807740,15.960870,578
578,Adžijina,45.807740,15.960870,
581_21,Desinička,45.807858,15.935984,581
581_22,Desinička,45.807921,15.936414,581
581,Desinička,45.807889,15.936199,
582_23,Tomislavova,45.808968,15.930050,582
582_24,Tomislavova,45.808748,15.929930,582
582,Tomislavova,45.808858,15.929990,
583_23,Hanamanova,45.805146,15.930127,583
583_24,Hanamanova,45.805544,15.930030,583
583,Hanamanova,45.805345,15.930079,
584_23,Baštijanova,45.801396,15.930236,584
584_24,Baštijanova,45.802005,15.930165,584
584,Baštijanova,45.801700,15.930201,
585_21,Voltino,45.800463,15.925805,585
585_22,Voltino,45.800517,15.925874,585
585,Voltino,45.800490,15.925840,
587_24,Dom športova,45.808158,15.953724,587
587,Dom športova,45.808158,15.953724,
588_21,Petračićeva,45.807310,15.956806,588
588,Petračićeva,45.807310,15.956806,
589_21,Adžijina,45.807501,15.960206,589
589,Adžijina,45.807501,15.960206,
600_23,Dom  Svetog Josipa,45.819609,15.941147,600
600_24,Dom  Svetog Josipa,45.819609,15.941147,600
600,Dom  Svetog Josipa,45.819609,15.941147,
608_22,Dore Pejačević,45.790901,15.901405,608
608,Dore Pejačević,45.790901,15.901405,
609_22,DVD Prečko,45.791833,15.898198,609
609,DVD Prečko,45.791833,15.898198,
610_22,Paljetkova,45.793058,15.894551,610
610,Paljetkova,45.793058,15.894551,
611_27,Prečko-terminal,45.794993,15.899685,611
611,Prečko-terminal,45.794993,15.899685,
612_24,Hatzeova,45.791541,15.905657,612
612,Hatzeova,45.791541,15.905657,
614_21,Gospodska,45.812924,15.886312,614
614_22,Gospodska,45.813054,15.887202,614
614,Gospodska,45.812989,15.886757,
615_21,Prigornica,45.815020,15.848134,615
615_22,Prigornica,45.815232,15.848165,615
615_23,Prigornica,45.815649,15.849831,615
615_24,Prigornica,45.815646,15.849814,615
615,Prigornica,45.815387,15.848986,
617_23,Seljačke bune,45.819621,15.833149,617
617_24,Seljačke bune,45.819456,15.832981,617
617,Seljačke bune,45.819539,15.833065,
618_23,Kamenolom,45.823558,15.836911,618
618_24,Kamenolom,45.823195,15.836686,618
618,Kamenolom,45.823377,15.836798,
619_23,Sutinska Vrela36,45.824069,15.840096,619
619_24,Sutinska Vrela36,45.824060,15.840446,619
619,Sutinska Vrela36,45.824064,15.840271,
620_23,Podsusedsko dolje,45.826128,15.846295,620
620_24,Podsusedsko dolje,45.825975,15.846037,620
620,Podsusedsko dolje,45.826051,15.846166,
621_23,Bengezi,45.829580,15.849110,621
621_24,Bengezi,45.829427,15.848928,621
621,Bengezi,45.829503,15.849019,
622_23,Ribićev put,45.833427,15.852560,622
622_24,Ribićev put,45.833302,15.852330,622
622,Ribićev put,45.833365,15.852445,
623_21,Podsusedski trg,45.816799,15.836304,623
623_22,Podsusedski trg,45.816816,15.835277,623
623,Podsusedski trg,45.816807,15.835790,
624_23,Dubravica 35,45.821206,15.871113,624
624_24,Dubravica 35,45.821154,15.871025,624
624,Dubravica 35,45.821180,15.871069,
625_23,Kancelak,45.825700,15.870079,625
625_24,Kancelak,45.825191,15.870056,625
625,Kancelak,45.825445,15.870068,
626_23,Kudekov put,45.830155,15.870195,626
626_24,Kudekov put,45.830572,15.869926,626
626,Kudekov put,45.830363,15.870060,
627_23,Dubravica okretište,45.833294,15.869604,627
627_24,Dubravica okretište,45.832991,15.869818,627
627,Dubravica okretište,45.833143,15.869711,
628_23,Trg S. Severa,45.830857,15.905053,628
628_24,Trg S. Severa,45.830857,15.905053,628
628,Trg S. Severa,45.830857,15.905053,
629_22,Zastavn.-nadvožnjak,45.750446,15.890148,629
629_24,Zastavn.-nadvožnjak,45.749832,15.890156,629
629,Zastavn.-nadvožnjak,45.750139,15.890152,
630_23,Zastavnice 1,45.748468,15.888602,630
630_24,Zastavnice 1,45.748457,15.888503,630
630,Zastavnice 1,45.748462,15.888553,
631_23,Hrvatski Leskovac,45.743989,15.889177,631
631_24,Hrvatski Leskovac,45.743854,15.889177,631
631,Hrvatski Leskovac,45.743921,15.889177,
632_23,Gornjodemerska,45.737239,15.888571,632
632_24,Gornjodemerska,45.737156,15.888487,632
632,Gornjodemerska,45.737197,15.888529,
633_21,Demerska 3,45.734372,15.891167,633
633_22,Demerska 3,45.735170,15.892096,633
633,Demerska 3,45.734771,15.891631,
634_24,Goli Breg,45.731349,15.898020,634
634,Goli Breg,45.731349,15.898020,
635_23,Jadranska av.-Arena,45.773802,15.942138,635
635_24,Jadranska av.-Arena,45.773416,15.942627,635
635,Jadranska av.-Arena,45.773609,15.942382,
636_21,Kockica,45.791397,15.968656,636
636_22,Kockica,45.791523,15.968264,636
636,Kockica,45.791460,15.968460,
637_21,Boćarski dom,45.790396,15.963006,637
637_22,Boćarski dom,45.790496,15.961318,637
637,Boćarski dom,45.790446,15.962162,
638_23,Vrhovec,45.843144,15.952861,638
638_24,Vrhovec,45.843144,15.952861,638
638,Vrhovec,45.843144,15.952861,
639_23,Vinogradi,45.825168,15.947013,639
639_24,Vinogradi,45.825440,15.947164,639
639,Vinogradi,45.825304,15.947088,
641_23,Vrhovec 62,45.820732,15.947612,641
641_24,Vrhovec 62,45.820723,15.947595,641
641,Vrhovec 62,45.820728,15.947603,
642_23,Zatišje,45.817831,15.947699,642
642_24,Zatišje,45.817576,15.947978,642
642,Zatišje,45.817703,15.947838,
643_23,Mandaličina,45.813655,15.949086,643
643_24,Mandaličina,45.813657,15.949114,643
643,Mandaličina,45.813656,15.949100,
644_23,Kuniščak,45.816156,15.944984,644
644_24,Kuniščak,45.815256,15.945336,644
644_27,Kuniščak,45.816156,15.944984,644
644_28,Kuniščak,45.815256,15.945336,644
644,Kuniščak,45.815706,15.945160,
645_23,Šestinski dol 58,45.821188,15.944155,645
645_24,Šestinski dol 58,45.820625,15.944067,645
645,Šestinski dol 58,45.820907,15.944111,
646_23,Šestin. dol odvojak,45.824888,15.943805,646
646_24,Šestin. dol odvojak,45.823831,15.943178,646
646,Šestin. dol odvojak,45.824360,15.943491,
647_23,Kestenovac-Drage,45.827674,15.944876,647
647_24,Kestenovac-Drage,45.827593,15.944949,647
647,Kestenovac-Drage,45.827634,15.944912,
648_23,Podfuščak,45.831483,15.945419,648
648_24,Podfuščak,45.832085,15.945168,648
648,Podfuščak,45.831784,15.945293,
649_23,Šestinski dol,45.834021,15.945329,649
649_24,Šestinski dol,45.834021,15.945329,649
649,Šestinski dol,45.834021,15.945329,
650_23,Tomislavova,45.808749,15.927313,650
650_24,Tomislavova,45.809094,15.927594,650
650,Tomislavova,45.808921,15.927454,
651_23,Sokolska,45.805718,15.923006,651
651_24,Sokolska,45.806227,15.923608,651
651,Sokolska,45.805973,15.923307,
652_23,Medarska,45.804292,15.920701,652
652_24,Medarska,45.804125,15.920257,652
652,Medarska,45.804209,15.920479,
653_23,Čepelovački put,45.802411,15.917698,653
653_24,Čepelovački put,45.801938,15.916751,653
653,Čepelovački put,45.802175,15.917224,
654_23,Ratarska,45.800025,15.913646,654
654_24,Ratarska,45.799795,15.913158,654
654,Ratarska,45.799910,15.913402,
655_21,Kožinčev put,45.811428,15.905740,655
655_22,Kožinčev put,45.811540,15.905196,655
655,Kožinčev put,45.811484,15.905468,
656_23,Švarčanska,45.809278,15.903876,656
656_24,Švarčanska,45.809647,15.903965,656
656,Švarčanska,45.809462,15.903920,
657_21,I.Brlić Mažuranić,45.806428,15.901773,657
657_22,I.Brlić Mažuranić,45.806531,15.901693,657
657,I.Brlić Mažuranić,45.806479,15.901733,
658_21,Nikole Gučetića,45.806467,15.898391,658
658_22,Nikole Gučetića,45.806540,15.898096,658
658,Nikole Gučetića,45.806503,15.898243,
659_24,Matije Divkovića,45.804284,15.897184,659
659,Matije Divkovića,45.804284,15.897184,
660_23,Gornje Padine,45.820419,15.890035,660
660_24,Gornje Padine,45.819779,15.889884,660
660,Gornje Padine,45.820099,15.889959,
661_23,Perjavica 92,45.826945,15.890763,661
661_24,Perjavica 92,45.826762,15.890351,661
661,Perjavica 92,45.826853,15.890557,
662_23,Perjavica-Dominika M,45.830675,15.894042,662
662_24,Perjavica-Dominika M,45.830966,15.893952,662
662,Perjavica-Dominika M,45.830820,15.893997,
663_23,Reljkovićeva,45.812480,15.955139,663
663_27,Reljkovićeva,45.812277,15.954981,663
663,Reljkovićeva,45.812379,15.955060,
664_24,Jablanovac,45.822155,15.938011,664
664,Jablanovac,45.822155,15.938011,
665_21,Stenjevečka,45.807188,15.889239,665
665_22,Stenjevečka,45.807256,15.889219,665
665,Stenjevečka,45.807222,15.889229,
666_21,Marina Tartaglie,45.806574,15.894949,666
666_22,Marina Tartaglie,45.806739,15.893652,666
666,Marina Tartaglie,45.806656,15.894300,
667_21,Tekstilno-teh. f.,45.812081,15.934697,667
667,Tekstilno-teh. f.,45.812081,15.934697,
668_23,Institut za bilje,45.751121,15.936757,668
668_24,Institut za bilje,45.751119,15.936638,668
668,Institut za bilje,45.751120,15.936697,
669_23,Naletilićeva 88,45.744190,15.932832,669
669_24,Naletilićeva 88,45.743389,15.932530,669
669,Naletilićeva 88,45.743789,15.932681,
670_23,Naletilićeva 104,45.738074,15.932161,670
670_24,Naletilićeva 104,45.738023,15.932091,670
670,Naletilićeva 104,45.738049,15.932126,
671_21,Obrež - škola,45.720930,15.925507,671
671_23,Obrež - škola,45.721529,15.924841,671
671,Obrež - škola,45.721230,15.925174,
672_23,Novoselci,45.716677,15.920806,672
672,Novoselci,45.716677,15.920806,
673_23,Strmec-centar,45.710214,15.918186,673
673,Strmec-centar,45.710214,15.918186,
674_23,Buhini,45.706124,15.913701,674
674,Buhini,45.706124,15.913701,
675_23,Celići,45.701389,15.906947,675
675,Celići,45.701389,15.906947,
676_23,Strmec-Regelji,45.699387,15.901729,676
676_24,Strmec-Regelji,45.699391,15.901738,676
676,Strmec-Regelji,45.699389,15.901734,
677_21,Milekanska-Orsagi,45.718126,15.931569,677
677_22,Milekanska-Orsagi,45.718190,15.931554,677
677,Milekanska-Orsagi,45.718158,15.931562,
678_21,Društveni dom,45.715597,15.942448,678
678_22,Društveni dom,45.715756,15.942242,678
678_23,Društveni dom,45.715907,15.941753,678
678_24,Društveni dom,45.715579,15.941592,678
678,Društveni dom,45.715710,15.942009,
679_23,Brezje,45.707651,15.938654,679
679_24,Brezje,45.706827,15.938453,679
679,Brezje,45.707239,15.938554,
680_23,Čret,45.667849,15.946189,680
680_24,Čret,45.667424,15.945932,680
680,Čret,45.667636,15.946060,
681_22,Dragonožec-škola,45.663460,15.943247,681
681_23,Dragonožec-škola,45.662972,15.942659,681
681_24,Dragonožec-škola,45.662997,15.942523,681
681_27,Dragonožec-škola,45.662715,15.942727,681
681,Dragonožec-škola,45.663036,15.942789,
682_23,Đurakov breg,45.657522,15.940865,682
682_24,Đurakov breg,45.657020,15.940976,682
682,Đurakov breg,45.657271,15.940920,
683_23,Pučki,45.652673,15.942835,683
683_24,Pučki,45.652436,15.942844,683
683,Pučki,45.652555,15.942840,
684_23,Goljački put,45.649794,15.938996,684
684_24,Goljački put,45.649522,15.938200,684
684,Goljački put,45.649658,15.938598,
685_23,Gornjodr.-Stari dom,45.646962,15.936790,685
685_24,Gornjodr.-Stari dom,45.647035,15.936781,685
685,Gornjodr.-Stari dom,45.646998,15.936786,
686_23,Vikend naselje,45.641206,15.935214,686
686_24,Vikend naselje,45.641361,15.935227,686
686,Vikend naselje,45.641283,15.935221,
687_23,Gornjodrag.-spomenik,45.638115,15.933902,687
687_24,Gornjodrag.-spomenik,45.638165,15.933948,687
687,Gornjodrag.-spomenik,45.638140,15.933925,
688_23,Žapci,45.637403,15.924516,688
688_24,Žapci,45.637044,15.924155,688
688,Žapci,45.637224,15.924336,
689_23,Staro okretište,45.633019,15.922557,689
689_24,Staro okretište,45.633006,15.922517,689
689,Staro okretište,45.633012,15.922537,
690_23,Lipnica,45.630692,15.922040,690
690_24,Lipnica,45.630699,15.922040,690
690,Lipnica,45.630696,15.922040,
691_23,Brezovička 80,45.752767,15.926646,691
691_24,Brezovička 80,45.752729,15.926560,691
691,Brezovička 80,45.752748,15.926603,
692_23,Brezovička-ekonomija,45.745712,15.919127,692
692_24,Brezovička-ekonomija,45.745671,15.919009,692
692,Brezovička-ekonomija,45.745691,15.919068,
693_23,AGROKOKA,45.743078,15.916875,693
693_24,AGROKOKA,45.743044,15.916753,693
693,AGROKOKA,45.743061,15.916814,
694_23,Brez.- pod kestenima,45.733236,15.912039,694
694_24,Brez.- pod kestenima,45.732800,15.911496,694
694,Brez.- pod kestenima,45.733018,15.911767,
695_23,Golobreška,45.728085,15.910906,695
695_24,Golobreška,45.727705,15.910797,695
695,Golobreška,45.727895,15.910851,
696_23,Brezovička-ambulanta,45.724163,15.907737,696
696_24,Brezovička-ambulanta,45.723852,15.907083,696
696,Brezovička-ambulanta,45.724007,15.907410,
697_23,Desprimska,45.721743,15.903333,697
697_24,Desprimska,45.721468,15.902803,697
697,Desprimska,45.721605,15.903068,
698_23,Pekarska,45.714969,15.899392,698
698_24,Pekarska,45.714503,15.899160,698
698,Pekarska,45.714736,15.899276,
699_23,Hudobička 1,45.711164,15.897072,699
699_24,Hudobička 1,45.710727,15.896668,699
699,Hudobička 1,45.710945,15.896870,
700_23,Grančarska 22,45.704187,15.893665,700
700_24,Grančarska 22,45.703840,15.893782,700
700,Grančarska 22,45.704014,15.893723,
701_23,Šolići,45.697866,15.891615,701
701_24,Šolići,45.697356,15.891185,701
701,Šolići,45.697611,15.891400,
703_23,Kraljevečka cesta,45.684406,15.880144,703
703_24,Kraljevečka cesta,45.684551,15.880177,703
703,Kraljevečka cesta,45.684479,15.880161,
704_23,K.Brijegi-IIIodvojak,45.679600,15.876193,704
704_24,K.Brijegi-IIIodvojak,45.679096,15.875659,704
704,K.Brijegi-IIIodvojak,45.679348,15.875926,
705_23,K.Brijegi-VI odvojak,45.675825,15.874241,705
705_24,K.Brijegi-VI odvojak,45.675070,15.874065,705
705,K.Brijegi-VI odvojak,45.675447,15.874153,
706_23,Kup.Kraljevec-škola,45.672197,15.873109,706
706_24,Kup.Kraljevec-škola,45.671934,15.872755,706
706,Kup.Kraljevec-škola,45.672066,15.872932,
707_23,Kralj.Brijegi-Lojeni,45.664450,15.871158,707
707_24,Kralj.Brijegi-Lojeni,45.663926,15.870862,707
707,Kralj.Brijegi-Lojeni,45.664188,15.871010,
708_23,Kral.Brijegi-Starjak,45.660197,15.871398,708
708_24,Kral.Brijegi-Starjak,45.660107,15.871352,708
708,Kral.Brijegi-Starjak,45.660152,15.871375,
709_23,K.Brijegi-Vodosprema,45.656484,15.871115,709
709_24,K.Brijegi-Vodosprema,45.656633,15.870934,709
709,K.Brijegi-Vodosprema,45.656558,15.871025,
710_21,Štrpet,45.664020,15.859786,710
710_22,Štrpet,45.664081,15.859563,710
710,Štrpet,45.664050,15.859675,
711_21,Štrpet-okretište,45.666811,15.857064,711
711_22,Štrpet-okretište,45.666811,15.857064,711
711,Štrpet-okretište,45.666811,15.857064,
712_23,Put za Tumbre,45.684500,15.873356,712
712_24,Put za Tumbre,45.684225,15.873248,712
712,Put za Tumbre,45.684362,15.873302,
713_23,Pandaki,45.682125,15.861004,713
713_24,Pandaki,45.682187,15.860981,713
713,Pandaki,45.682156,15.860993,
714_23,Harabajsi,45.684657,15.857287,714
714_24,Harabajsi,45.684685,15.857270,714
714,Harabajsi,45.684671,15.857279,
715_23,Potočko,45.687274,15.852336,715
715_24,Potočko,45.687970,15.852271,715
715,Potočko,45.687622,15.852303,
716_23,Matički,45.692357,15.839738,716
716_24,Matički,45.692425,15.839759,716
716,Matički,45.692391,15.839749,
717_21,Put za Ašpergere,45.696466,15.837275,717
717_22,Put za Ašpergere,45.696508,15.837349,717
717,Put za Ašpergere,45.696487,15.837312,
718_23,Ašpergeri,45.690829,15.830237,718
718_24,Ašpergeri,45.690834,15.830088,718
718,Ašpergeri,45.690831,15.830163,
719_24,Gajani,45.670650,15.822971,719
719,Gajani,45.670650,15.822971,
725_21,Ferki,45.665209,15.937611,725
725_22,Ferki,45.665522,15.937639,725
725,Ferki,45.665365,15.937625,
726_21,Gata,45.667225,15.930383,726
726_22,Gata,45.667294,15.929684,726
726,Gata,45.667260,15.930034,
727_22,Donji Trpuci,45.664743,15.921467,727
727_23,Donji Trpuci,45.665111,15.921816,727
727,Donji Trpuci,45.664927,15.921642,
728_21,Ježdovečka,45.760485,15.873842,728
728_22,Ježdovečka,45.760562,15.873653,728
728,Ježdovečka,45.760524,15.873748,
729_23,Gradek,45.758484,15.861878,729
729_24,Gradek,45.758607,15.862245,729
729,Gradek,45.758546,15.862061,
730_23,Domovićeva,45.757319,15.852538,730
730_24,Domovićeva,45.757167,15.851102,730
730,Domovićeva,45.757243,15.851820,
731_21,Gornjostupnička,45.755018,15.835744,731
731_23,Gornjostupnička,45.755740,15.837948,731
731_24,Gornjostupnička,45.755708,15.835118,731
731,Gornjostupnička,45.755489,15.836270,
732_23,Put za Kerestinec,45.751367,15.808810,732
732_24,Put za Kerestinec,45.750911,15.808296,732
732,Put za Kerestinec,45.751139,15.808553,
733_23,Horvati I,45.735072,15.798570,733
733_24,Horvati I,45.734904,15.798718,733
733,Horvati I,45.734988,15.798644,
734_23,Kralji,45.729956,15.801805,734
734_24,Kralji,45.729463,15.802107,734
734,Kralji,45.729709,15.801956,
735_23,Nabrežje,45.726966,15.806298,735
735_24,Nabrežje,45.726789,15.806648,735
735,Nabrežje,45.726877,15.806473,
736_23,Pipići,45.723172,15.811063,736
736_24,Pipići,45.723415,15.810903,736
736,Pipići,45.723294,15.810983,
737_23,Bencekovići,45.719918,15.814162,737
737_24,Bencekovići,45.719740,15.814324,737
737,Bencekovići,45.719829,15.814243,
738_22,Horvati-Hercegi,45.711193,15.810402,738
738_24,Horvati-Hercegi,45.711193,15.810402,738
738,Horvati-Hercegi,45.711193,15.810402,
746_21,Ježdovečka 16,45.770803,15.858201,746
746_22,Ježdovečka 16,45.770973,15.857683,746
746,Ježdovečka 16,45.770888,15.857942,
747_21,Ježdovec-vojarna,45.772323,15.853674,747
747_22,Ježdovec-vojarna,45.772425,15.853262,747
747,Ježdovec-vojarna,45.772374,15.853468,
748_21,Studeni II.,45.774495,15.849305,748
748_22,Studeni II.,45.775087,15.848300,748
748,Studeni II.,45.774791,15.848803,
749_21,Vukasi,45.776751,15.845504,749
749_22,Vukasi,45.776997,15.844756,749
749,Vukasi,45.776874,15.845130,
750_21,Ježdovečka 69 A,45.778252,15.838865,750
750,Ježdovečka 69 A,45.778252,15.838865,
751_21,Ježdovec-nadvožnjak,45.782131,15.832722,751
751_22,Ježdovec-nadvožnjak,45.782485,15.832312,751
751,Ježdovec-nadvožnjak,45.782308,15.832517,
752_23,Milače,45.682841,15.845802,752
752,Milače,45.682841,15.845802,
753_23,Put za Franje,45.678902,15.839863,753
753,Put za Franje,45.678902,15.839863,
754_23,Stadion,45.864072,15.802281,754
754_24,Stadion,45.864229,15.802106,754
754,Stadion,45.864151,15.802193,
756_22,Inker,45.877606,15.800449,756
756_23,Inker,45.879324,15.800263,756
756,Inker,45.878465,15.800356,
757_23,Veliki Vrh,45.892873,15.795258,757
757_24,Veliki Vrh,45.891355,15.794677,757
757,Veliki Vrh,45.892114,15.794968,
758_23,Cvjetna ulica,45.899107,15.798611,758
758_24,Cvjetna ulica,45.898958,15.798418,758
758,Cvjetna ulica,45.899032,15.798514,
759_23,Pri mlinu,45.904032,15.801858,759
759_24,Pri mlinu,45.904345,15.801770,759
759,Pri mlinu,45.904188,15.801814,
760_23,Pojatno-centar,45.907994,15.807093,760
760_24,Pojatno-centar,45.907779,15.806720,760
760,Pojatno-centar,45.907886,15.806907,
761_23,Pri Špoljaru,45.912841,15.808317,761
761_24,Pri Špoljaru,45.912605,15.808248,761
761,Pri Špoljaru,45.912723,15.808282,
762_23,Nadlug,45.918088,15.807741,762
762_24,Nadlug,45.918695,15.807500,762
762,Nadlug,45.918391,15.807621,
763_23,Kružna ulica,45.924158,15.810126,763
763_24,Kružna ulica,45.924143,15.809823,763
763,Kružna ulica,45.924151,15.809974,
764_23,Kupljenovo-centar,45.932246,15.814912,764
764_24,Kupljenovo-centar,45.932109,15.814841,764
764,Kupljenovo-centar,45.932177,15.814877,
771_23,D. Bistra-centar,45.904009,15.854466,771
771_24,D. Bistra-centar,45.904115,15.854397,771
771,D. Bistra-centar,45.904062,15.854432,
772_23,Polj.-kod škole,45.901865,15.867480,772
772_24,Polj.-kod škole,45.902372,15.868127,772
772,Polj.-kod škole,45.902119,15.867804,
773_23,Kulturni centar,45.906907,15.876305,773
773_24,Kulturni centar,45.906044,15.875320,773
773,Kulturni centar,45.906476,15.875812,
775_23,Kod Cohe,45.915134,15.890400,775
775_24,Kod Cohe,45.915305,15.890634,775
775,Kod Cohe,45.915220,15.890517,
776_23,Sljemenska,45.919160,15.895858,776
776_24,Sljemenska,45.918933,15.893861,776
776,Sljemenska,45.919046,15.894860,
777_23,G.Bistra-okretište,45.920548,15.900183,777
777_24,G.Bistra-okretište,45.920712,15.900123,777
777,G.Bistra-okretište,45.920630,15.900153,
778_22,Petračićeva,45.808447,15.957288,778
778,Petračićeva,45.808447,15.957288,
779_21,Vodovodna,45.808850,15.949202,779
779_22,Vodovodna,45.808931,15.948942,779
779,Vodovodna,45.808890,15.949072,
780_23,Stubička 16,45.837959,15.826646,780
780,Stubička 16,45.837959,15.826646,
781_23,Pintarićeva,45.845343,15.833606,781
781_24,Pintarićeva,45.845171,15.833435,781
781,Pintarićeva,45.845257,15.833521,
782_23,Ivanec-centar,45.849222,15.834053,782
782_24,Ivanec-centar,45.849591,15.834105,782
782,Ivanec-centar,45.849407,15.834079,
783_23,Ivanečka,45.854864,15.835305,783
783_24,Ivanečka,45.854726,15.835190,783
783,Ivanečka,45.854795,15.835247,
785_23,Pri školi,45.872512,15.845568,785
785_24,Pri školi,45.872455,15.845463,785
785,Pri školi,45.872483,15.845516,
786_23,Pri Saiću,45.879238,15.853455,786
786_24,Pri Saiću,45.878848,15.852765,786
786,Pri Saiću,45.879043,15.853110,
787_23,Pri Kolaru,45.883243,15.857028,787
787_24,Pri Kolaru,45.884278,15.857275,787
787,Pri Kolaru,45.883761,15.857151,
788_23,Bukovje-Mihanovićeva,45.890355,15.856846,788
788_24,Bukovje-Mihanovićeva,45.890012,15.857047,788
788,Bukovje-Mihanovićeva,45.890184,15.856946,
789_23,Kod benzinske,45.898536,15.856408,789
789_24,Kod benzinske,45.898428,15.856396,789
789,Kod benzinske,45.898482,15.856402,
790_23,Kod Škalića,45.910836,15.885546,790
790_24,Kod Škalića,45.911281,15.886119,790
790,Kod Škalića,45.911058,15.885833,
791_23,Bana Josipa Jelačića,45.885881,15.859530,791
791_24,Bana Josipa Jelačića,45.885925,15.859491,791
791,Bana Josipa Jelačića,45.885903,15.859511,
792_23,Novaki - Selska,45.886173,15.861208,792
792_24,Novaki - Selska,45.886845,15.864466,792
792,Novaki - Selska,45.886509,15.862837,
793_23,Kovačevićeva,45.888968,15.867778,793
793_24,Kovačevićeva,45.889029,15.867888,793
793,Kovačevićeva,45.888998,15.867833,
794_23,Šoštarići,45.894615,15.875090,794
794_24,Šoštarići,45.894610,15.875030,794
794,Šoštarići,45.894613,15.875060,
795_23,Poljanica-Zeleni br.,45.898035,15.882270,795
795_24,Poljanica-Zeleni br.,45.898044,15.882180,795
795,Poljanica-Zeleni br.,45.898040,15.882225,
796_23,Brezaki,45.901758,15.885884,796
796_24,Brezaki,45.901701,15.885544,796
796,Brezaki,45.901730,15.885714,
797_23,Kod Ileniča,45.905786,15.886097,797
797_24,Kod Ileniča,45.906001,15.885948,797
797,Kod Ileniča,45.905893,15.886023,
798_22,Stadion,45.864332,15.801140,798
798,Stadion,45.864332,15.801140,
799_21,Savska,45.861044,15.795681,799
799_22,Savska,45.861008,15.795985,799
799,Savska,45.861026,15.795833,
800_21,Konzum,45.862023,15.787738,800
800_22,Konzum,45.861475,15.786383,800
800,Konzum,45.861749,15.787060,
801_21,Dvorac Lužnica,45.861392,15.778135,801
801_22,Dvorac Lužnica,45.861512,15.777793,801
801,Dvorac Lužnica,45.861452,15.777964,
802_21,Šibice - dom,45.863149,15.774076,802
802_22,Šibice - dom,45.863149,15.774076,802
802,Šibice - dom,45.863149,15.774076,
806_21,Mažuranićeva,45.869385,15.800599,806
806_22,Mažuranićeva,45.869485,15.799904,806
806,Mažuranićeva,45.869435,15.800252,
808_23,Stubička I.odvojak,45.866290,15.843555,808
808_24,Stubička I.odvojak,45.866711,15.843646,808
808,Stubička I.odvojak,45.866501,15.843601,
918_23,Sarajevska - Hrelić,45.765220,16.006752,918
918_24,Sarajevska - Hrelić,45.765359,16.006626,918
918,Sarajevska - Hrelić,45.765290,16.006689,
919_23,Sarajev.-Jakuševečka,45.760863,16.008880,919
919_24,Sarajev.-Jakuševečka,45.761238,16.008029,919
919,Sarajev.-Jakuševečka,45.761050,16.008455,
920_21,"Jakuševec, škola",45.760835,16.011062,920
920_22,"Jakuševec, škola",45.760873,16.010850,920
920,"Jakuševec, škola",45.760854,16.010956,
921_21,"Jakuševec, centar",45.760517,16.015808,921
921_22,"Jakuševec, centar",45.760495,16.015379,921
921,"Jakuševec, centar",45.760506,16.015593,
922_21,"Jakuševec, groblje",45.757765,16.020848,922
922_22,"Jakuševec, groblje",45.758232,16.020482,922
922,"Jakuševec, groblje",45.757998,16.020665,
923_21,"Mičevec, nadvožnjak",45.753817,16.045945,923
923_22,"Mičevec, nadvožnjak",45.753847,16.045874,923
923,"Mičevec, nadvožnjak",45.753832,16.045909,
924_21,"Mičevec, centar",45.753272,16.053487,924
924_22,"Mičevec, centar",45.753442,16.052033,924
924,"Mičevec, centar",45.753357,16.052760,
926_21,Nova Kosnica 66,45.759928,16.072505,926
926_22,Nova Kosnica 66,45.759608,16.072324,926
926,Nova Kosnica 66,45.759768,16.072414,
927_21,Kosnica-izbjeg. nas.,45.764079,16.077451,927
927_22,Kosnica-izbjeg. nas.,45.764095,16.077613,927
927,Kosnica-izbjeg. nas.,45.764087,16.077532,
928_21,"Kosnica, nadvožnjak",45.763028,16.081624,928
928_22,"Kosnica, nadvožnjak",45.762973,16.081961,928
928,"Kosnica, nadvožnjak",45.763001,16.081793,
929_21,Kosnica,45.756481,16.086479,929
929_22,Kosnica,45.756580,16.086460,929
929,Kosnica,45.756531,16.086470,
930_21,"Kosnica, Petina",45.753653,16.091475,930
930_22,"Kosnica, Petina",45.753678,16.091475,930
930,"Kosnica, Petina",45.753665,16.091475,
931_21,Selnica,45.751304,16.096423,931
931_22,Selnica,45.751014,16.096874,931
931,Selnica,45.751159,16.096648,
932_21,Selnica-put za Bapče,45.749483,16.101224,932
932_22,Selnica-put za Bapče,45.749562,16.100753,932
932,Selnica-put za Bapče,45.749523,16.100989,
933_23,Črnkovec,45.751727,16.109856,933
933_24,Črnkovec,45.751727,16.109856,933
933_27,Črnkovec,45.751757,16.109848,933
933_28,Črnkovec,45.751883,16.109636,933
933,Črnkovec,45.751773,16.109799,
934_21,Črnko. put za Strmec,45.750095,16.111964,934
934_22,Črnko. put za Strmec,45.750097,16.111851,934
934,Črnko. put za Strmec,45.750096,16.111908,
935_21,"Črnkovec, centar",45.750592,16.120000,935
935_22,"Črnkovec, centar",45.750645,16.119804,935
935,"Črnkovec, centar",45.750618,16.119902,
936_21,Lekneno I,45.752898,16.128089,936
936_22,Lekneno I,45.752973,16.127919,936
936,Lekneno I,45.752935,16.128004,
937_21,Lekneno II,45.747997,16.138401,937
937_22,Lekneno II,45.747999,16.138381,937
937,Lekneno II,45.747998,16.138391,
938_21,Strmec Bukevski,45.750293,16.156614,938
938_22,Strmec Bukevski,45.750367,16.156464,938
938,Strmec Bukevski,45.750330,16.156539,
939_21,"S. Bukevski, okret.",45.745137,16.162956,939
939_22,"S. Bukevski, okret.",45.745137,16.162956,939
939,"S. Bukevski, okret.",45.745137,16.162956,
940_23,Ščitarjevo I,45.762977,16.113984,940
940_24,Ščitarjevo I,45.763123,16.113958,940
940,Ščitarjevo I,45.763050,16.113971,
941_23,Ščitarjevo II,45.768614,16.116655,941
941_24,Ščitarjevo II,45.768566,16.116628,941
941,Ščitarjevo II,45.768590,16.116642,
943_23,"Sasi, okretište",45.780349,16.105274,943
943_24,"Sasi, okretište",45.780349,16.105274,943
943,"Sasi, okretište",45.780349,16.105274,
945_24,Rakarje,45.725505,16.085708,945
945,Rakarje,45.725505,16.085708,
946_24,Kobilić,45.731833,16.101190,946
946,Kobilić,45.731833,16.101190,
947_24,Put za Bapče,45.740710,16.106832,947
947,Put za Bapče,45.740710,16.106832,
948_24,Kralja Zvonimira 9,45.717634,16.074226,948
948,Kralja Zvonimira 9,45.717634,16.074226,
949_21,Srebrnjak,45.832091,15.988697,949
949_22,Srebrnjak,45.832542,15.990161,949
949_23,Srebrnjak,45.831598,15.989457,949
949,Srebrnjak,45.832077,15.989438,
950_24,Srebrnjak 131,45.829015,15.991468,950
950,Srebrnjak 131,45.829015,15.991468,
951_23,Bolnica Srebrnjak,45.824889,15.992973,951
951_24,Bolnica Srebrnjak,45.824857,15.992925,951
951,Bolnica Srebrnjak,45.824873,15.992949,
952_23,Bolnica Vuk Vrhovac,45.820041,15.995412,952
952_24,Bolnica Vuk Vrhovac,45.819888,15.995445,952
952,Bolnica Vuk Vrhovac,45.819965,15.995428,
953_23,Labudovac,45.823011,15.997963,953
953_24,Labudovac,45.822741,15.997915,953
953,Labudovac,45.822876,15.997939,
954_23,Jordanovac,45.826858,15.997724,954
954_27,Jordanovac,45.826576,15.997135,954
954_28,Jordanovac,45.826124,15.997222,954
954,Jordanovac,45.826519,15.997360,
955_24,Rebar,45.830025,15.995797,955
955,Rebar,45.830025,15.995797,
956_21,Kozjak,45.831396,15.998314,956
956_22,Kozjak,45.831394,15.998319,956
956,Kozjak,45.831395,15.998316,
957_22,Petrova 47,45.818090,15.999470,957
957,Petrova 47,45.818090,15.999470,
958_23,Bukovačka 8,45.824341,16.011490,958
958_24,Bukovačka 8,45.824364,16.011465,958
958,Bukovačka 8,45.824353,16.011478,
959_23,Bukovačka 68,45.828818,16.009720,959
959_24,Bukovačka 68,45.828889,16.009628,959
959,Bukovačka 68,45.828854,16.009674,
960_23,Bukovačka-Jurja Ves,45.833462,16.005619,960
960_24,Bukovačka-Jurja Ves,45.832826,16.005982,960
960,Bukovačka-Jurja Ves,45.833144,16.005800,
961_23,Bukovačka 160,45.835602,16.004619,961
961_24,Bukovačka 160,45.835938,16.004584,961
961,Bukovačka 160,45.835770,16.004601,
962_23,Kostanjevec,45.839549,16.002234,962
962_24,Kostanjevec,45.839955,16.001826,962
962,Kostanjevec,45.839752,16.002030,
963_23,Bukovačka 276,45.843485,15.999982,963
963_24,Bukovačka 276,45.843508,15.999946,963
963,Bukovačka 276,45.843496,15.999964,
964_23,Gornji Bukovac,45.847629,15.997412,964
964_24,Gornji Bukovac,45.847520,15.997485,964
964,Gornji Bukovac,45.847574,15.997449,
965_23,Vinec,45.850451,15.993249,965
965_24,Vinec,45.850245,15.993335,965
965,Vinec,45.850348,15.993292,
966_21,Remete,45.850254,15.993339,966
966_23,Remete,45.850147,15.993457,966
966_24,Remete,45.848864,15.990280,966
966,Remete,45.849755,15.992359,
967_23,Kameniti stol,45.852201,15.986944,967
967_24,Kameniti stol,45.852440,15.986808,967
967,Kameniti stol,45.852320,15.986876,
968_23,Kameniti stol 14,45.849300,15.985474,968
968_24,Kameniti stol 14,45.848851,15.985353,968
968,Kameniti stol 14,45.849075,15.985414,
969_24,Rudolfa Kolaka,45.830226,16.034250,969
969_32,Rudolfa Kolaka,45.831869,16.033919,969
969_42,Rudolfa Kolaka,45.831227,16.035135,969
969_52,Rudolfa Kolaka,45.831869,16.033919,969
969,Rudolfa Kolaka,45.831298,16.034306,
970_23,KB Dubrava,45.834566,16.033320,970
970_24,KB Dubrava,45.833409,16.033184,970
970,KB Dubrava,45.833988,16.033252,
971_23,Avenija G.Šuška-MUP,45.839156,16.031902,971
971_24,Avenija G.Šuška-MUP,45.838027,16.032401,971
971,Avenija G.Šuška-MUP,45.838592,16.032151,
972_23,Svetošimunska,45.840418,16.029821,972
972_24,Svetošimunska,45.839796,16.030609,972
972,Svetošimunska,45.840107,16.030215,
973_23,Dotršćina,45.844102,16.028790,973
973_24,Dotršćina,45.844022,16.028760,973
973,Dotršćina,45.844062,16.028775,
974_23,Miroševečina,45.853167,16.026377,974
974_24,Miroševečina,45.853201,16.026323,974
974,Miroševečina,45.853184,16.026350,
975_23,Štefanovec 37,45.861409,16.022356,975
975_24,Štefanovec 37,45.860881,16.022881,975
975,Štefanovec 37,45.861145,16.022619,
976_23,Štefanovec 70,45.865607,16.018587,976
976_24,Štefanovec 70,45.866967,16.017200,976
976,Štefanovec 70,45.866287,16.017894,
977_23,Štefanovec 114,45.869883,16.016886,977
977_24,Štefanovec 114,45.869949,16.016864,977
977,Štefanovec 114,45.869916,16.016875,
978_22,Trg Svetog Šimuna,45.875735,16.014842,978
978_23,Trg Svetog Šimuna,45.875368,16.013808,978
978,Trg Svetog Šimuna,45.875551,16.014325,
979_23,Sinbuk,45.881433,16.025239,979
979_24,Sinbuk,45.881115,16.024678,979
979,Sinbuk,45.881274,16.024959,
980_23,M.Trnava-V.Ročića,45.882552,16.029863,980
980_24,M.Trnava-V.Ročića,45.882464,16.029819,980
980,M.Trnava-V.Ročića,45.882508,16.029841,
981_23,Markušev. Trnava 56,45.885504,16.029027,981
981_24,Markušev. Trnava 56,45.885708,16.028767,981
981,Markušev. Trnava 56,45.885606,16.028897,
982_23,Markušev. Trnava  84,45.888440,16.027104,982
982_24,Markušev. Trnava  84,45.888438,16.027079,982
982,Markušev. Trnava  84,45.888439,16.027091,
983_23,Bidrovečka 36,45.892890,16.028522,983
983_24,Bidrovečka 36,45.893021,16.028512,983
983,Bidrovečka 36,45.892956,16.028517,
984_23,Bidrovec-brana,45.895070,16.030251,984
984_24,Bidrovec-brana,45.895045,16.030248,984
984,Bidrovec-brana,45.895057,16.030249,
985_21,Grižanska,45.828815,16.052488,985
985_22,Grižanska,45.829820,16.052192,985
985_32,Grižanska,45.829820,16.052192,985
985,Grižanska,45.829485,16.052291,
986_23,Malekova,45.832831,16.050221,986
986_24,Malekova,45.833239,16.049955,986
986,Malekova,45.833035,16.050088,
987_23,Hammova,45.835939,16.048886,987
987_24,Hammova,45.835054,16.049188,987
987,Hammova,45.835497,16.049037,
988_21,Kolakova-Grižanska,45.838399,16.048093,988
988_22,Kolakova-Grižanska,45.837681,16.046774,988
988_24,Kolakova-Grižanska,45.837688,16.047605,988
988,Kolakova-Grižanska,45.837923,16.047491,
989_22,Miroševec,45.840781,16.043949,989
989_26,Miroševec,45.840783,16.043954,989
989,Miroševec,45.840782,16.043951,
990_21,Vile Velebita,45.834331,16.057038,990
990_22,Vile Velebita,45.834196,16.056348,990
990_23,Vile Velebita,45.834785,16.056040,990
990_24,Vile Velebita,45.834505,16.055871,990
990,Vile Velebita,45.834454,16.056324,
991_23,Grana,45.837938,16.056527,991
991_24,Grana,45.839004,16.056439,991
991,Grana,45.838471,16.056483,
992_22,Stara Oporovečka,45.840942,16.054080,992
992_23,Stara Oporovečka,45.841947,16.055327,992
992_24,Stara Oporovečka,45.842685,16.054689,992
992,Stara Oporovečka,45.841858,16.054699,
993_23,Sunekova 12,45.844288,16.054503,993
993_24,Sunekova 12,45.844437,16.054535,993
993,Sunekova 12,45.844363,16.054519,
994_23,Granešina-škola,45.846542,16.053271,994
994_24,Granešina-škola,45.846742,16.052874,994
994,Granešina-škola,45.846642,16.053072,
995_23,Grad mladih,45.851720,16.046495,995
995_24,Grad mladih,45.851662,16.046403,995
995,Grad mladih,45.851691,16.046449,
996_23,Novaki,45.856068,16.041273,996
996_24,Novaki,45.854331,16.042705,996
996,Novaki,45.855199,16.041989,
997_23,Žigulići,45.865054,16.037958,997
997_24,Žigulići,45.864186,16.038100,997
997,Žigulići,45.864620,16.038029,
998_23,Čepini,45.871191,16.035530,998
998_24,Čepini,45.871161,16.035466,998
998,Čepini,45.871176,16.035498,
999_23,Miroševečka 190,45.875857,16.034474,999
999_24,Miroševečka 190,45.876041,16.034473,999
999,Miroševečka 190,45.875949,16.034473,
1000_23,Markuševečka Trnava,45.880600,16.032953,1000
1000_24,Markuševečka Trnava,45.880525,16.032939,1000
1000,Markuševečka Trnava,45.880562,16.032946,
1001_23,Markušev. Popovec 62,45.888484,16.035014,1001
1001_24,Markušev. Popovec 62,45.888748,16.034968,1001
1001,Markušev. Popovec 62,45.888616,16.034991,
1002_23,Budeki-kapelica,45.891371,16.033438,1002
1002_24,Budeki-kapelica,45.891309,16.033378,1002
1002,Budeki-kapelica,45.891340,16.033408,
1003_23,Vidovec-trgovina,45.896288,16.032632,1003
1003_24,Vidovec-trgovina,45.896274,16.032640,1003
1003,Vidovec-trgovina,45.896281,16.032636,
1004_23,Vidovec - škola,45.898470,16.034366,1004
1004_24,Vidovec - škola,45.898476,16.034182,1004
1004,Vidovec - škola,45.898473,16.034274,
1005_23,Oporovec,45.852066,16.055635,1005
1005_24,Oporovec,45.851976,16.055534,1005
1005,Oporovec,45.852021,16.055585,
1006_23,Sunekova 172,45.856055,16.055272,1006
1006_24,Sunekova 172,45.855375,16.055444,1006
1006,Sunekova 172,45.855715,16.055358,
1007_23,Čugovec,45.858208,16.056118,1007
1007_24,Čugovec,45.858087,16.056047,1007
1007,Čugovec,45.858148,16.056082,
1008_23,Gumerec,45.862874,16.055409,1008
1008_24,Gumerec,45.862975,16.055411,1008
1008,Gumerec,45.862925,16.055410,
1009_23,Ivanovićeva ulica,45.867588,16.056071,1009
1009_24,Ivanovićeva ulica,45.867515,16.055982,1009
1009,Ivanovićeva ulica,45.867552,16.056026,
1010_23,Mihovci,45.875437,16.056325,1010
1010_24,Mihovci,45.875222,16.056303,1010
1010,Mihovci,45.875329,16.056314,
1011_23,Goliš,45.879928,16.057418,1011
1011_24,Goliš,45.879889,16.057409,1011
1011,Goliš,45.879909,16.057414,
1012_23,Trstenik,45.885280,16.056072,1012
1012_24,Trstenik,45.885260,16.056077,1012
1012,Trstenik,45.885270,16.056074,
1013_23,Lepušići,45.887191,16.057780,1013
1013_24,Lepušići,45.887473,16.058019,1013
1013,Lepušići,45.887332,16.057899,
1014_23,Kameščica,45.890593,16.060018,1014
1014_24,Kameščica,45.890683,16.059967,1014
1014,Kameščica,45.890638,16.059992,
1015_21,Čučerje-crkva,45.893941,16.060215,1015
1015_23,Čučerje-crkva,45.894756,16.059903,1015
1015_24,Čučerje-crkva,45.894760,16.059785,1015
1015_25,Čučerje-crkva,45.893941,16.060215,1015
1015,Čučerje-crkva,45.894349,16.060029,
1016_23,Markovići,45.898132,16.059907,1016
1016_24,Markovići,45.898595,16.060475,1016
1016,Markovići,45.898363,16.060191,
1017_23,Sruki,45.901887,16.063248,1017
1017_24,Sruki,45.901248,16.063174,1017
1017,Sruki,45.901567,16.063211,
1018_23,Čučerje,45.905045,16.060971,1018
1018_24,Čučerje,45.905031,16.060976,1018
1018,Čučerje,45.905038,16.060974,
1019_21,Ljubijska,45.833388,16.040749,1019
1019_22,Ljubijska,45.832265,16.040460,1019
1019,Ljubijska,45.832827,16.040604,
1020_21,Zdenačka,45.835401,16.043726,1020
1020_22,Zdenačka,45.834808,16.042664,1020
1020,Zdenačka,45.835104,16.043195,
1021_21,Blaža Jurišića,45.840522,16.053077,1021
1021_22,Blaža Jurišića,45.840130,16.051659,1021
1021,Blaža Jurišića,45.840326,16.052368,
1023_23,Studentski grad,45.838208,16.061720,1023
1023_24,Studentski grad,45.838067,16.061460,1023
1023,Studentski grad,45.838138,16.061590,
1024_23,Klin,45.829649,16.063165,1024
1024,Klin,45.829649,16.063165,
1025_22,Klin-Koledinečka,45.831974,16.063339,1025
1025_23,Klin-Koledinečka,45.832342,16.064236,1025
1025_24,Klin-Koledinečka,45.831382,16.063598,1025
1025,Klin-Koledinečka,45.831899,16.063725,
1026_21,Koledinečka,45.831980,16.057498,1026
1026_22,Koledinečka,45.832045,16.057226,1026
1026,Koledinečka,45.832013,16.057362,
1027_21,Bistrička-Zagrebačka,45.827498,16.107770,1027
1027_22,Bistrička-Zagrebačka,45.827811,16.105547,1027
1027_23,Bistrička-Zagrebačka,45.828283,16.106724,1027
1027_42,Bistrička-Zagrebačka,45.827780,16.108090,1027
1027_52,Bistrička-Zagrebačka,45.827493,16.107855,1027
1027_62,Bistrička-Zagrebačka,45.827493,16.107855,1027
1027,Bistrička-Zagrebačka,45.827727,16.107307,
1028_21,Trg Lovre Matačića,45.832538,16.108188,1028
1028,Trg Lovre Matačića,45.832538,16.108188,
1029_21,Trakoščanska-Selčina,45.832620,16.111278,1029
1029,Trakoščanska-Selčina,45.832620,16.111278,
1030_21,Ruščenica,45.847613,16.058433,1030
1030_22,Ruščenica,45.847395,16.057626,1030
1030,Ruščenica,45.847504,16.058030,
1031_21,Varoška,45.848948,16.064073,1031
1031_22,Varoška,45.848966,16.063297,1031
1031,Varoška,45.848957,16.063685,
1032_23,Branovečka,45.849199,16.072884,1032
1032_24,Branovečka,45.848743,16.072625,1032
1032,Branovečka,45.848971,16.072754,
1033_23,Branovec,45.857188,16.074324,1033
1033_24,Branovec,45.857102,16.074287,1033
1033,Branovec,45.857145,16.074305,
1034_23,Prevende,45.862816,16.074533,1034
1034_24,Prevende,45.862936,16.074578,1034
1034,Prevende,45.862876,16.074556,
1035_23,Mudifaji,45.871054,16.078453,1035
1035_24,Mudifaji,45.870695,16.077601,1035
1035,Mudifaji,45.870874,16.078027,
1036_23,Furdini,45.874274,16.077986,1036
1036_24,Furdini,45.874111,16.078007,1036
1036,Furdini,45.874192,16.077997,
1037_21,Jalševec,45.880457,16.074749,1037
1037_22,Jalševec,45.880457,16.074749,1037
1037,Jalševec,45.880457,16.074749,
1038_21,Koledinečka-škola,45.831929,16.061458,1038
1038_25,Koledinečka-škola,45.831920,16.061444,1038
1038,Koledinečka-škola,45.831924,16.061451,
1039_23,Ulica Breza,45.825102,16.063717,1039
1039_24,Ulica Breza,45.825183,16.063652,1039
1039,Ulica Breza,45.825143,16.063685,
1040_21,Ulica Platana,45.822955,16.064855,1040
1040_23,Ulica Platana,45.823324,16.064093,1040
1040_24,Ulica Platana,45.822218,16.064067,1040
1040,Ulica Platana,45.822832,16.064338,
1041_22,Resnički gaj,45.809811,16.063818,1041
1041_23,Resnički gaj,45.809720,16.065440,1041
1041_24,Resnički gaj,45.809094,16.064260,1041
1041,Resnički gaj,45.809542,16.064506,
1043_23,Kvaternikov trg,45.813396,15.998643,1043
1043_24,Kvaternikov trg,45.812988,15.998963,1043
1043_25,Kvaternikov trg,45.813797,15.998280,1043
1043_34,Kvaternikov trg,45.812745,15.999159,1043
1043_43,Kvaternikov trg,45.814248,15.997761,1043
1043_44,Kvaternikov trg,45.812560,15.999288,1043
1043_53,Kvaternikov trg,45.813959,15.997705,1043
1043_54,Kvaternikov trg,45.813132,15.998772,1043
1043_64,Kvaternikov trg,45.814248,15.997761,1043
1043_74,Kvaternikov trg,45.813959,15.997705,1043
1043,Kvaternikov trg,45.813503,15.998404,
1044_21,Veterinarski f.,45.806986,16.006877,1044
1044_23,Veterinarski f.,45.807312,16.005685,1044
1044_24,Veterinarski f.,45.806575,16.005949,1044
1044,Veterinarski f.,45.806958,16.006170,
1045_21,Livadarski put,45.808261,16.010269,1045
1045_22,Livadarski put,45.808289,16.010381,1045
1045,Livadarski put,45.808275,16.010325,
1046_21,Trg Volovčica,45.810269,16.017063,1046
1046_22,Trg Volovčica,45.810086,16.016884,1046
1046,Trg Volovčica,45.810177,16.016974,
1047_21,Turopoljska,45.810526,16.021857,1047
1047_22,Turopoljska,45.810202,16.022122,1047
1047,Turopoljska,45.810364,16.021990,
1048_21,Kolareva,45.808549,16.025234,1048
1048_22,Kolareva,45.808453,16.025628,1048
1048,Kolareva,45.808501,16.025431,
1049_21,Getaldićeva,45.807365,16.029627,1049
1049_22,Getaldićeva,45.807126,16.030674,1049
1049,Getaldićeva,45.807245,16.030150,
1050_21,Borongajska Kampus,45.805927,16.035253,1050
1050_22,Borongajska Kampus,45.806013,16.034933,1050
1050_23,Borongajska Kampus,45.806431,16.035843,1050
1050,Borongajska Kampus,45.806124,16.035343,
1052_21,Vukomerec-okretište,45.806419,16.046315,1052
1052_22,Vukomerec-okretište,45.806623,16.046197,1052
1052,Vukomerec-okretište,45.806521,16.046256,
1053_21,Sobolski put,45.806948,16.049834,1053
1053_22,Sobolski put,45.806999,16.049843,1053
1053,Sobolski put,45.806973,16.049839,
1054_21,Vukomerečka 40,45.810299,16.052587,1054
1054_22,Vukomerečka 40,45.810086,16.052503,1054
1054,Vukomerečka 40,45.810192,16.052545,
1055_21,Resnički put,45.813602,16.055354,1055
1055_22,Resnički put,45.812702,16.054864,1055
1055,Resnički put,45.813152,16.055109,
1056_21,Trnava,45.814096,16.059615,1056
1056_22,Trnava,45.814234,16.060308,1056
1056,Trnava,45.814165,16.059962,
1058_24,Heinzelova - MUP,45.798586,16.014951,1058
1058,Heinzelova - MUP,45.798586,16.014951,
1059_21,Žitnjak - okretište,45.801473,16.061805,1059
1059_22,Žitnjak - okretište,45.800938,16.060027,1059
1059_26,Žitnjak - okretište,45.800985,16.060048,1059
1059,Žitnjak - okretište,45.801132,16.060627,
1060_21,DIOKI,45.802035,16.067869,1060
1060_22,DIOKI,45.801914,16.067676,1060
1060,DIOKI,45.801974,16.067772,
1061_21,Servisna - INA,45.802157,16.075216,1061
1061_22,Servisna - INA,45.802038,16.074966,1061
1061,Servisna - INA,45.802098,16.075091,
1062_21,"Resnik I,kbr.47",45.803071,16.081073,1062
1062_22,"Resnik I,kbr.47",45.803116,16.080671,1062
1062,"Resnik I,kbr.47",45.803093,16.080872,
1063_21,Resnik I - crkva,45.802172,16.088386,1063
1063_22,Resnik I - crkva,45.802374,16.087876,1063
1063,Resnik I - crkva,45.802273,16.088131,
1064_21,Resnik 104,45.801063,16.093080,1064
1064_22,Resnik 104,45.801053,16.095515,1064
1064,Resnik 104,45.801058,16.094297,
1065_21,Ivanjorečka-pošta,45.799861,16.113774,1065
1065_22,Ivanjorečka-pošta,45.799905,16.113593,1065
1065,Ivanjorečka-pošta,45.799883,16.113684,
1066_22,Ivanja Reka-okret.,45.797816,16.118967,1066
1066_23,Ivanja Reka-okret.,45.799217,16.118500,1066
1066_24,Ivanja Reka-okret.,45.797237,16.119858,1066
1066_26,Ivanja Reka-okret.,45.797816,16.118967,1066
1066,Ivanja Reka-okret.,45.798021,16.119073,
1067_21,Sv. Ivana-D.Grubera,45.801707,16.118785,1067
1067_23,Sv. Ivana-D.Grubera,45.801465,16.118664,1067
1067_24,Sv. Ivana-D.Grubera,45.801825,16.118627,1067
1067_25,Sv. Ivana-D.Grubera,45.801707,16.118785,1067
1067,Sv. Ivana-D.Grubera,45.801676,16.118715,
1068_23,Pokupska,45.792933,16.026335,1068
1068_24,Pokupska,45.792067,16.027263,1068
1068,Pokupska,45.792500,16.026799,
1070_23,Kanalski put,45.791239,16.029776,1070
1070_24,Kanalski put,45.790221,16.030972,1070
1070,Kanalski put,45.790730,16.030374,
1071_24,Radnička 218,45.786324,16.038701,1071
1071,Radnička 218,45.786324,16.038701,
1072_23,Črnkovečka,45.785672,16.040973,1072
1072_24,Črnkovečka,45.784292,16.042836,1072
1072,Črnkovečka,45.784982,16.041905,
1073_23,Žitnjačka,45.782834,16.046617,1073
1073_24,Žitnjačka,45.781843,16.047818,1073
1073,Žitnjačka,45.782339,16.047217,
1074_23,Radnička - INA,45.779262,16.053659,1074
1074_24,Radnička - INA,45.778274,16.054843,1074
1074,Radnička - INA,45.778768,16.054251,
1075_23,Petruševec,45.776479,16.059323,1075
1075_24,Petruševec,45.776343,16.058632,1075
1075,Petruševec,45.776411,16.058978,
1076_21,Žitnjak-ambulanta,45.781706,16.061702,1076
1076_22,Žitnjak-ambulanta,45.781732,16.061639,1076
1076,Žitnjak-ambulanta,45.781719,16.061671,
1077_21,Struge III.,45.786335,16.065218,1077
1077_22,Struge III.,45.786868,16.065901,1077
1077,Struge III.,45.786602,16.065560,
1078_21,Struge,45.790915,16.071703,1078
1078_22,Struge,45.790915,16.071703,1078
1078,Struge,45.790915,16.071703,
1079_21,Petruševec I odv. V,45.774685,16.057220,1079
1079_22,Petruševec I odv. V,45.774636,16.056965,1079
1079,Petruševec I odv. V,45.774661,16.057093,
1080_21,Trafostanica,45.773140,16.053678,1080
1080_22,Trafostanica,45.773122,16.053407,1080
1080,Trafostanica,45.773131,16.053542,
1081_21,Petruševečko naselje,45.773016,16.048717,1081
1081_22,Petruševečko naselje,45.773016,16.048717,1081
1081,Petruševečko naselje,45.773016,16.048717,
1082_21,Lastovska-škola,45.793250,15.994665,1082
1082_22,Lastovska-škola,45.793821,15.994749,1082
1082,Lastovska-škola,45.793536,15.994707,
1083_21,Sportski centar,45.790090,16.000158,1083
1083_22,Sportski centar,45.790180,15.999667,1083
1083,Sportski centar,45.790135,15.999913,
1084_21,Lastovska,45.789842,16.003073,1084
1084_22,Lastovska,45.790425,16.002792,1084
1084,Lastovska,45.790134,16.002932,
1085_22,Bundek,45.783504,15.978265,1085
1085_23,Bundek,45.784166,15.980081,1085
1085_24,Bundek,45.782882,15.979740,1085
1085,Bundek,45.783518,15.979362,
1086_21,Sloboština,45.764197,15.987907,1086
1086_22,Sloboština,45.764304,15.987695,1086
1086,Sloboština,45.764251,15.987801,
1087_23,Bolšićeva,45.764861,15.991141,1087
1087_24,Bolšićeva,45.763521,15.990608,1087
1087,Bolšićeva,45.764191,15.990874,
1088_24,Hribarov prilaz,45.765300,15.993417,1088
1088,Hribarov prilaz,45.765300,15.993417,
1089_21,Abramovićeva,45.762430,15.993577,1089
1089_22,Abramovićeva,45.763189,15.993005,1089
1089,Abramovićeva,45.762810,15.993291,
1090_21,Hrelićka,45.762125,15.998448,1090
1090_22,Hrelićka,45.762166,15.997170,1090
1090,Hrelićka,45.762146,15.997809,
1091_24,Božidara Magovca,45.772225,15.993924,1091
1091,Božidara Magovca,45.772225,15.993924,
1092_21,Dječji vrtić,45.769243,15.995497,1092
1092,Dječji vrtić,45.769243,15.995497,
1093_23,Božidara Magovca 111,45.769374,16.001107,1093
1093,Božidara Magovca 111,45.769374,16.001107,
1094_22,Ukrajinska,45.773007,16.001113,1094
1094,Ukrajinska,45.773007,16.001113,
1095_21,Fancevljev prilaz,45.773070,15.997547,1095
1095_22,Fancevljev prilaz,45.773070,15.997547,1095
1095,Fancevljev prilaz,45.773070,15.997547,
1098_21,Dankovečka,45.829622,16.056709,1098
1098_23,Dankovečka,45.830648,16.056034,1098
1098_24,Dankovečka,45.829928,16.055799,1098
1098,Dankovečka,45.830066,16.056180,
1099_21,Trnovčica 117,45.836017,16.068771,1099
1099_22,Trnovčica 117,45.836206,16.068583,1099
1099,Trnovčica 117,45.836111,16.068677,
1100_21,Josipa Stadlera,45.836645,16.072972,1100
1100_22,Josipa Stadlera,45.836753,16.072898,1100
1100,Josipa Stadlera,45.836699,16.072935,
1101_21,Dubečka 89,45.834525,16.078512,1101
1101,Dubečka 89,45.834525,16.078512,
1102_23,Rosandićeva,45.833186,16.083061,1102
1102_24,Rosandićeva,45.833531,16.082766,1102
1102,Rosandićeva,45.833358,16.082914,
1103_23,Ivankovićeva,45.829669,16.081709,1103
1103_24,Ivankovićeva,45.829524,16.081537,1103
1103,Ivankovićeva,45.829596,16.081623,
1104_23,Brestovečka-d. dom,45.833451,16.093151,1104
1104_24,Brestovečka-d. dom,45.832897,16.093537,1104
1104,Brestovečka-d. dom,45.833174,16.093344,
1105_23,Novoselec,45.852398,16.082165,1105
1105_24,Novoselec,45.852180,16.082231,1105
1105_26,Novoselec,45.852181,16.082228,1105
1105,Novoselec,45.852253,16.082208,
1106_23,Resnik silos,45.805602,16.072548,1106
1106_24,Resnik silos,45.806006,16.072074,1106
1106,Resnik silos,45.805804,16.072311,
1107_23,Remete 76,45.843214,15.995501,1107
1107_24,Remete 76,45.843430,15.995327,1107
1107,Remete 76,45.843322,15.995414,
1108_23,Remete 8,45.838954,15.997705,1108
1108_24,Remete 8,45.838898,15.997695,1108
1108,Remete 8,45.838926,15.997700,
1109_23,Rim,45.835171,16.001786,1109
1109_24,Rim,45.834771,16.002208,1109
1109,Rim,45.834971,16.001997,
1110_23,Barutanski jarak 96,45.832034,16.004677,1110
1110_24,Barutanski jarak 96,45.832022,16.004617,1110
1110,Barutanski jarak 96,45.832028,16.004647,
1111_23,Barutanski jarak 48,45.828505,16.006273,1111
1111_24,Barutanski jarak 48,45.828141,16.006319,1111
1111,Barutanski jarak 48,45.828323,16.006296,
1112_23,Remete 128,45.846044,15.993123,1112
1112_24,Remete 128,45.846837,15.992544,1112
1112,Remete 128,45.846440,15.992833,
1113_23,Prilesje,45.823093,16.013452,1113
1113,Prilesje,45.823093,16.013452,
1114_23,Prilesje - ŠUMA,45.827535,16.013539,1114
1114_24,Prilesje - ŠUMA,45.827362,16.013494,1114
1114,Prilesje - ŠUMA,45.827448,16.013517,
1115_23,Oboj-Jurja Ves,45.829833,16.012264,1115
1115_24,Oboj-Jurja Ves,45.829663,16.012205,1115
1115,Oboj-Jurja Ves,45.829748,16.012234,
1116_23,Oboj 28,45.833995,16.011418,1116
1116_24,Oboj 28,45.833447,16.011656,1116
1116,Oboj 28,45.833721,16.011537,
1117_23,Oboj - Kosa,45.838033,16.009244,1117
1117_24,Oboj - Kosa,45.837694,16.009484,1117
1117,Oboj - Kosa,45.837864,16.009364,
1118_23,Bukovac - VODOVOD,45.841059,16.007667,1118
1118_24,Bukovac - VODOVOD,45.840726,16.007543,1118
1118,Bukovac - VODOVOD,45.840893,16.007605,
1119_23,Bukovac 115,45.843051,16.007434,1119
1119_24,Bukovac 115,45.842903,16.007559,1119
1119,Bukovac 115,45.842977,16.007497,
1120_21,Gornji Bukovac,45.844200,16.009299,1120
1120_22,Gornji Bukovac,45.844377,16.009052,1120
1120,Gornji Bukovac,45.844289,16.009175,
1121_23,Gornji Bukovac-Kosa,45.840763,16.015480,1121
1121_24,Gornji Bukovac-Kosa,45.840641,16.014439,1121
1121,Gornji Bukovac-Kosa,45.840702,16.014959,
1122_23,Melinišće,45.839675,16.019035,1122
1122_24,Melinišće,45.839441,16.019414,1122
1122,Melinišće,45.839558,16.019224,
1123_23,Bolnica Rebro,45.823093,16.007593,1123
1123,Bolnica Rebro,45.823093,16.007593,
1124_23,Boln. Jordanovac,45.825356,16.002577,1124
1124,Boln. Jordanovac,45.825356,16.002577,
1125_23,Škabrnjska,45.834235,16.037995,1125
1125_24,Škabrnjska,45.833765,16.038012,1125
1125,Škabrnjska,45.834000,16.038004,
1126_23,Valturska,45.838296,16.037901,1126
1126_24,Valturska,45.838330,16.037850,1126
1126,Valturska,45.838313,16.037876,
1127_23,Sjeverna,45.843484,16.038818,1127
1127_24,Sjeverna,45.843534,16.038826,1127
1127,Sjeverna,45.843509,16.038822,
1128_23,Pesteri,45.848002,16.037793,1128
1128_24,Pesteri,45.848040,16.037726,1128
1128,Pesteri,45.848021,16.037759,
1129_23,Zelenčica,45.850319,16.035331,1129
1129_24,Zelenčica,45.850174,16.035402,1129
1129,Zelenčica,45.850247,16.035367,
1130_23,Lešće,45.854473,16.034746,1130
1130_24,Lešće,45.854421,16.034707,1130
1130,Lešće,45.854447,16.034726,
1131_23,Blizno,45.856972,16.033766,1131
1131_24,Blizno,45.856825,16.033662,1131
1131,Blizno,45.856898,16.033714,
1132_23,Dotršćinska,45.860970,16.033037,1132
1132_24,Dotršćinska,45.860812,16.032955,1132
1132,Dotršćinska,45.860891,16.032996,
1133_21,Maksimirska naselja,45.814796,16.027445,1133
1133_22,Maksimirska naselja,45.814626,16.025497,1133
1133,Maksimirska naselja,45.814711,16.026471,
1134_21,Ravnice,45.816004,16.033726,1134
1134_22,Ravnice,45.815774,16.031734,1134
1134,Ravnice,45.815889,16.032730,
1135_21,I.Štefanov.zavoj,45.817579,16.043049,1135
1135_22,I.Štefanov.zavoj,45.817688,16.042728,1135
1135,I.Štefanov.zavoj,45.817634,16.042889,
1136_21,Štefanov.-Stud.kamp.,45.818645,16.049370,1136
1136_22,Štefanov.-Stud.kamp.,45.818491,16.047498,1136
1136,Štefanov.-Stud.kamp.,45.818568,16.048434,
1137_21,Osječka,45.819741,16.055933,1137
1137_22,Osječka,45.819597,16.053988,1137
1137,Osječka,45.819669,16.054960,
1138_21,Aleja Javora,45.823208,16.068727,1138
1138,Aleja Javora,45.823208,16.068727,
1139_21,Branimirova-A.Javora,45.822292,16.070829,1139
1139_22,Branimirova-A.Javora,45.822179,16.068978,1139
1139,Branimirova-A.Javora,45.822236,16.069904,
1140_21,Branim-Čulinečka,45.821625,16.063037,1140
1140_22,Branim-Čulinečka,45.820880,16.062054,1140
1140_23,Branim-Čulinečka,45.821530,16.062958,1140
1140_25,Branim-Čulinečka,45.821530,16.062958,1140
1140,Branim-Čulinečka,45.821391,16.062752,
1141_21,Svetošimunska-trgov.,45.838619,16.027020,1141
1141_22,Svetošimunska-trgov.,45.838738,16.026871,1141
1141,Svetošimunska-trgov.,45.838679,16.026945,
1142_21,Čret-Melinišće,45.840797,16.021244,1142
1142_26,Čret-Melinišće,45.840828,16.021176,1142
1142,Čret-Melinišće,45.840813,16.021210,
1143_21,Čret 27,45.842492,16.020532,1143
1143_22,Čret 27,45.842482,16.020568,1143
1143,Čret 27,45.842487,16.020550,
1144_21,Jazbina 48,45.844636,16.016962,1144
1144_22,Jazbina 48,45.845862,16.015564,1144
1144,Jazbina 48,45.845249,16.016263,
1145_21,VIII. Jazbinski odv.,45.848178,16.011709,1145
1145_22,VIII. Jazbinski odv.,45.848336,16.011566,1145
1145,VIII. Jazbinski odv.,45.848257,16.011637,
1147_21,Jazbina 71,45.846614,16.013960,1147
1147,Jazbina 71,45.846614,16.013960,
1148_23,Gračanska 10,45.846438,15.976997,1148
1148_24,Gračanska 10,45.845939,15.976852,1148
1148,Gračanska 10,45.846188,15.976924,
1149_23,Gračanska 48,45.850991,15.975136,1149
1149_24,Gračanska 48,45.850381,15.975325,1149
1149,Gračanska 48,45.850686,15.975230,
1150_23,Gračanska 60,45.854339,15.974635,1150
1150_24,Gračanska 60,45.854516,15.974515,1150
1150,Gračanska 60,45.854428,15.974575,
1151_23,Zvečaj,45.857754,15.976324,1151
1151_24,Zvečaj,45.857381,15.975314,1151
1151,Zvečaj,45.857567,15.975819,
1152_21,Bliznec,45.862623,15.987693,1152
1152_22,Bliznec,45.862662,15.987882,1152
1152,Bliznec,45.862643,15.987787,
1153_21,Jelenčica,45.864580,15.992458,1153
1153_22,Jelenčica,45.864637,15.992711,1153
1153,Jelenčica,45.864608,15.992584,
1154_21,Bačun,45.867195,15.997275,1154
1154_22,Bačun,45.866626,15.996760,1154
1154,Bačun,45.866910,15.997017,
1155_21,Kamenarski breg,45.868789,16.000209,1155
1155_22,Kamenarski breg,45.869110,16.000500,1155
1155,Kamenarski breg,45.868950,16.000354,
1156_21,Markuševečka 106,45.871191,16.005190,1156
1156_22,Markuševečka 106,45.871231,16.005437,1156
1156,Markuševečka 106,45.871211,16.005314,
1157_21,Markuševečka 140,45.874280,16.011829,1157
1157_22,Markuševečka 140,45.873269,16.011064,1157
1157,Markuševečka 140,45.873775,16.011447,
1158_21,Sportski centar,45.783368,15.971514,1158
1158_22,Sportski centar,45.783319,15.970529,1158
1158,Sportski centar,45.783344,15.971021,
1159_21,Cimermanova,45.783148,15.966839,1159
1159_22,Cimermanova,45.782972,15.967051,1159
1159,Cimermanova,45.783060,15.966945,
1160_23,Remetinec,45.768334,15.945837,1160
1160,Remetinec,45.768334,15.945837,
1161_22,Lanište,45.774242,15.947725,1161
1161_26,Lanište,45.774242,15.947725,1161
1161,Lanište,45.774242,15.947725,
1163_23,Đurđekovec,45.878044,16.115210,1163
1163_24,Đurđekovec,45.877567,16.115116,1163
1163,Đurđekovec,45.877805,16.115163,
1164_23,"Reber, Habeki",45.884968,16.115443,1164
1164_24,"Reber, Habeki",45.885595,16.115385,1164
1164_28,"Reber, Habeki",45.885786,16.115082,1164
1164,"Reber, Habeki",45.885450,16.115303,
1165_23,Brod-Kuntićeva,45.890513,16.114433,1165
1165_24,Brod-Kuntićeva,45.890885,16.114303,1165
1165,Brod-Kuntićeva,45.890699,16.114368,
1166_23,Poljaki,45.890532,16.111995,1166
1166_24,Poljaki,45.893682,16.113501,1166
1166,Poljaki,45.892107,16.112748,
1167_23,Prekvršje-škola,45.899144,16.111361,1167
1167_24,Prekvršje-škola,45.898978,16.111451,1167
1167,Prekvršje-škola,45.899061,16.111406,
1168_23,Gor Prekvršje P.i T.,45.903975,16.110055,1168
1168_24,Gor Prekvršje P.i T.,45.903964,16.110011,1168
1168,Gor Prekvršje P.i T.,45.903969,16.110033,
1169_23,Kašinska Sopnica,45.908617,16.107277,1169
1169_24,Kašinska Sopnica,45.908765,16.106592,1169
1169,Kašinska Sopnica,45.908691,16.106935,
1170_23,Kučilovina 16,45.910185,16.099024,1170
1170_24,Kučilovina 16,45.909977,16.100335,1170
1170,Kučilovina 16,45.910081,16.099679,
1171_23,Kučilovina 38,45.910768,16.093525,1171
1171_24,Kučilovina 38,45.910872,16.093226,1171
1171,Kučilovina 38,45.910820,16.093376,
1172_23,Planina Donja 19,45.923047,16.087211,1172
1172_24,Planina Donja 19,45.923084,16.087249,1172
1172,Planina Donja 19,45.923066,16.087230,
1173_23,Planinarska 16,45.927363,16.087281,1173
1173_24,Planinarska 16,45.927278,16.087020,1173
1173,Planinarska 16,45.927321,16.087150,
1174_23,Vatrogasni dom,45.926886,16.091346,1174
1174_24,Vatrogasni dom,45.926922,16.091271,1174
1174,Vatrogasni dom,45.926904,16.091308,
1175_23,Planinska 20,45.928218,16.095608,1175
1175_24,Planinska 20,45.928347,16.095455,1175
1175,Planinska 20,45.928283,16.095531,
1176_23,Planina Donja,45.927078,16.100436,1176
1176_24,Planina Donja,45.927077,16.100399,1176
1176,Planina Donja,45.927078,16.100418,
1177_21,Kralji,45.892748,16.123747,1177
1177_22,Kralji,45.892688,16.123619,1177
1177,Kralji,45.892718,16.123683,
1178_23,Cvjetna cesta,45.897247,16.125055,1178
1178_24,Cvjetna cesta,45.897529,16.124893,1178
1178,Cvjetna cesta,45.897388,16.124974,
1179_23,Škola Kašina,45.905918,16.125324,1179
1179_24,Škola Kašina,45.905971,16.125196,1179
1179,Škola Kašina,45.905944,16.125260,
1180_23,Kašina - centar,45.910046,16.124507,1180
1180_24,Kašina - centar,45.909884,16.124439,1180
1180,Kašina - centar,45.909965,16.124473,
1181_23,Kašina 110,45.915040,16.123551,1181
1181_24,Kašina 110,45.914933,16.123572,1181
1181,Kašina 110,45.914987,16.123561,
1182_23,Kašina 128,45.918633,16.121692,1182
1182_24,Kašina 128,45.918285,16.121726,1182
1182,Kašina 128,45.918459,16.121709,
1183_23,Kašina 179,45.922200,16.119908,1183
1183_24,Kašina 179,45.922024,16.119950,1183
1183,Kašina 179,45.922112,16.119929,
1184_22,Kašina-okretište,45.926902,16.116425,1184
1184_23,Kašina-okretište,45.927016,16.116712,1184
1184_24,Kašina-okretište,45.926553,16.116961,1184
1184_26,Kašina-okretište,45.926902,16.116425,1184
1184,Kašina-okretište,45.926843,16.116631,
1185_23,Kamenolom,45.935367,16.102140,1185
1185_24,Kamenolom,45.935332,16.102136,1185
1185,Kamenolom,45.935349,16.102138,
1186_23,Planina Gornja,45.939793,16.079363,1186
1186_24,Planina Gornja,45.939793,16.079363,1186
1186,Planina Gornja,45.939793,16.079363,
1187_23,"Otok, Nežićeva",45.764517,15.981005,1187
1187_24,"Otok, Nežićeva",45.764992,15.980889,1187
1187,"Otok, Nežićeva",45.764755,15.980947,
1188_21,Oreškovićeva,45.760505,15.987694,1188
1188_22,Oreškovićeva,45.760614,15.987747,1188
1188_23,Oreškovićeva,45.760609,15.987749,1188
1188_24,Oreškovićeva,45.759346,15.989958,1188
1188,Oreškovićeva,45.760269,15.988287,
1189_23,Buzin,45.748710,15.991812,1189
1189_24,Buzin,45.747226,15.993580,1189
1189,Buzin,45.747968,15.992696,
1190_21,Odra,45.742770,15.999723,1190
1190_22,Odra,45.744302,15.997997,1190
1190,Odra,45.743536,15.998860,
1191_21,Odra-nadvožnjak,45.738317,16.005889,1191
1191_22,Odra-nadvožnjak,45.739834,16.004264,1191
1191_23,Odra-nadvožnjak,45.739405,16.005945,1191
1191,Odra-nadvožnjak,45.739185,16.005366,
1192_21,Hrašće Turopolj.,45.734881,16.010725,1192
1192_22,Hrašće Turopolj.,45.736059,16.010909,1192
1192,Hrašće Turopolj.,45.735470,16.010817,
1193_22,Veliko Polje,45.733574,16.014650,1193
1193_23,Veliko Polje,45.733849,16.016194,1193
1193,Veliko Polje,45.733712,16.015422,
1194_21,Velika Mlaka,45.729070,16.028747,1194
1194_22,Velika Mlaka,45.729973,16.026048,1194
1194_23,Velika Mlaka,45.729955,16.026075,1194
1194_24,Velika Mlaka,45.728666,16.026763,1194
1194,Velika Mlaka,45.729416,16.026908,
1195_21,Ulica Rudolfa Fizira,45.722141,16.050205,1195
1195_22,Ulica Rudolfa Fizira,45.722541,16.049619,1195
1195_23,Ulica Rudolfa Fizira,45.722872,16.051863,1195
1195,Ulica Rudolfa Fizira,45.722518,16.050562,
1196_21,Zagrebačka,45.720025,16.054240,1196
1196,Zagrebačka,45.720025,16.054240,
1197_21,Goričanka,45.716974,16.057320,1197
1197,Goričanka,45.716974,16.057320,
1198_21,Kolodvorska,45.714748,16.061530,1198
1198,Kolodvorska,45.714748,16.061530,
1199_21,Galženica,45.712748,16.067483,1199
1199,Galženica,45.712748,16.067483,
1200_21,Velika Gorica,45.711477,16.077502,1200
1200_23,Velika Gorica,45.711621,16.077274,1200
1200_25,Velika Gorica,45.711452,16.076934,1200
1200_43,Velika Gorica,45.711560,16.077368,1200
1200_44,Velika Gorica,45.711560,16.077368,1200
1200_54,Velika Gorica,45.711472,16.077579,1200
1200_73,Velika Gorica,45.711462,16.077511,1200
1200_74,Velika Gorica,45.711464,16.077502,1200
1200,Velika Gorica,45.711509,16.077380,
1201_22,Zagrebačka 42,45.715912,16.070648,1201
1201,Zagrebačka 42,45.715912,16.070648,
1202_22,HBZ-Centar-škola,45.717595,16.065463,1202
1202,HBZ-Centar-škola,45.717595,16.065463,
1203_22,VG - groblje,45.719064,16.060796,1203
1203,VG - groblje,45.719064,16.060796,
1204_22,Podbrežnica,45.721144,16.054048,1204
1204,Podbrežnica,45.721144,16.054048,
1205_21,Vladimira Nazora,45.824619,16.117897,1205
1205_22,Vladimira Nazora,45.823981,16.124719,1205
1205,Vladimira Nazora,45.824300,16.121308,
1206_21,Sesvetska Sela,45.823721,16.131891,1206
1206_22,Sesvetska Sela,45.823813,16.129842,1206
1206,Sesvetska Sela,45.823767,16.130866,
1207_21,Kraljevečki Novaki,45.825428,16.145182,1207
1207_22,Kraljevečki Novaki,45.825708,16.143412,1207
1207,Kraljevečki Novaki,45.825568,16.144297,
1208_21,Kobiljak-trgovina,45.824077,16.152647,1208
1208_22,Kobiljak-trgovina,45.824414,16.151127,1208
1208,Kobiljak-trgovina,45.824246,16.151887,
1209_21,Kobiljak 96,45.821473,16.161516,1209
1209,Kobiljak 96,45.821473,16.161516,
1210_21,Sesvetski Kraljevec,45.817729,16.170430,1210
1210_22,Sesvetski Kraljevec,45.818406,16.169162,1210
1210,Sesvetski Kraljevec,45.818067,16.169796,
1211_21,Školska,45.816084,16.176252,1211
1211_22,Školska,45.816511,16.174782,1211
1211,Školska,45.816298,16.175517,
1212_21,Put za Cerje,45.814889,16.181901,1212
1212_22,Put za Cerje,45.815282,16.180171,1212
1212,Put za Cerje,45.815086,16.181036,
1213_21,Mladena Halape,45.813837,16.186704,1213
1213,Mladena Halape,45.813837,16.186704,
1214_21,Ivana Granđe 6,45.858763,16.158826,1214
1214_22,Ivana Granđe 6,45.858796,16.158856,1214
1214,Ivana Granđe 6,45.858780,16.158841,
1215_21,Šašinovec,45.854164,16.164026,1215
1215_22,Šašinovec,45.854268,16.163980,1215
1215,Šašinovec,45.854216,16.164003,
1216_21,Šašinovec-vatr. dom,45.849966,16.165162,1216
1216_22,Šašinovec-vatr. dom,45.849935,16.165297,1216
1216,Šašinovec-vatr. dom,45.849951,16.165230,
1217_21,Šijavrh,45.845736,16.162874,1217
1217_22,Šijavrh,45.839284,16.169204,1217
1217,Šijavrh,45.842510,16.166039,
1218_21,Budenec-Stančira,45.839265,16.169153,1218
1218_22,Budenec-Stančira,45.836590,16.174287,1218
1218,Budenec-Stančira,45.837927,16.171720,
1219_21,Budenečka 14,45.836562,16.174255,1219
1219_22,Budenečka 14,45.834850,16.178710,1219
1219,Budenečka 14,45.835706,16.176482,
1220_21,Cerje,45.830387,16.189464,1220
1220_22,Cerje,45.830349,16.189688,1220
1220,Cerje,45.830368,16.189576,
1221_21,Drenčec,45.837808,16.201460,1221
1221_22,Drenčec,45.837654,16.201131,1221
1221,Drenčec,45.837731,16.201296,
1223_21,Laktec,45.858211,16.229453,1223
1223_22,Laktec,45.858176,16.229483,1223
1223,Laktec,45.858194,16.229468,
1224_22,Ante Starčevića 45 A,45.824543,16.096974,1224
1224,Ante Starčevića 45 A,45.824543,16.096974,
1225_23,Sopnička - škola,45.821846,16.092985,1225
1225_24,Sopnička - škola,45.821846,16.092985,1225
1225,Sopnička - škola,45.821846,16.092985,
1226_24,Sopnička 37,45.819283,16.095715,1226
1226,Sopnička 37,45.819283,16.095715,
1227_23,Sopnička-kod 10D,45.817058,16.099184,1227
1227,Sopnička-kod 10D,45.817058,16.099184,
1228_21,Ranci,45.793099,16.122209,1228
1228_22,Ranci,45.793110,16.122424,1228
1228,Ranci,45.793104,16.122316,
1229_23,Dumovec,45.799681,16.150783,1229
1229_24,Dumovec,45.800143,16.151613,1229
1229,Dumovec,45.799912,16.151198,
1230_21,Sajam Jakuševec,45.772733,16.018408,1230
1230_22,Sajam Jakuševec,45.772733,16.018408,1230
1230,Sajam Jakuševec,45.772733,16.018408,
1231_23,Ulica Badema,45.818723,16.064511,1231
1231_24,Ulica Badema,45.817690,16.064691,1231
1231,Ulica Badema,45.818207,16.064601,
1232_22,Zelena tržnica,45.799833,16.052529,1232
1232,Zelena tržnica,45.799833,16.052529,
1233_21,Građevinska škola,45.771559,15.981728,1233
1233_23,Građevinska škola,45.772456,15.980519,1233
1233_24,Građevinska škola,45.771010,15.980405,1233
1233,Građevinska škola,45.771675,15.980884,
1234_23,Slanovečka cesta,45.872236,16.056432,1234
1234_24,Slanovečka cesta,45.871905,16.056375,1234
1234,Slanovečka cesta,45.872071,16.056403,
1236_21,Glavničica,45.849119,16.213603,1236
1236_22,Glavničica,45.848905,16.213333,1236
1236,Glavničica,45.849012,16.213468,
1237_23,Lukoranska,45.767638,15.956021,1237
1237_24,Lukoranska,45.767433,15.956563,1237
1237,Lukoranska,45.767535,15.956292,
1238_23,Franje Malnara,45.765131,15.963145,1238
1238_24,Franje Malnara,45.764891,15.963945,1238
1238,Franje Malnara,45.765011,15.963545,
1239_23,Čavoglavska,45.762260,15.967744,1239
1239_24,Čavoglavska,45.762219,15.967624,1239
1239,Čavoglavska,45.762239,15.967684,
1240_23,Mrkšina,45.758441,15.972799,1240
1240_24,Mrkšina,45.758525,15.972712,1240
1240,Mrkšina,45.758483,15.972755,
1241_23,Mrkšina 65-crkva,45.756065,15.970234,1241
1241_24,Mrkšina 65-crkva,45.756394,15.970864,1241
1241,Mrkšina 65-crkva,45.756230,15.970549,
1242_23,Mrkšina 67C,45.754162,15.967878,1242
1242_24,Mrkšina 67C,45.753707,15.967183,1242
1242,Mrkšina 67C,45.753934,15.967530,
1243_22,Čehi-nadvožnjak,45.749300,15.965652,1243
1243_23,Čehi-nadvožnjak,45.749678,15.966000,1243
1243,Čehi-nadvožnjak,45.749489,15.965826,
1244_23,Remetinečkih žrtava,45.750771,15.960281,1244
1244_24,Remetinečkih žrtava,45.750684,15.960062,1244
1244,Remetinečkih žrtava,45.750727,15.960171,
1245_23,Čorova,45.746342,15.960202,1245
1245_24,Čorova,45.746893,15.960133,1245
1245,Čorova,45.746617,15.960168,
1246_23,Čehi - društveni dom,45.742645,15.957672,1246
1246_24,Čehi - društveni dom,45.742560,15.957200,1246
1246,Čehi - društveni dom,45.742603,15.957436,
1247_23,Lucmanova,45.739950,15.958589,1247
1247_24,Lucmanova,45.739738,15.958931,1247
1247,Lucmanova,45.739844,15.958760,
1248_23,Čehi - Bulićeva,45.736886,15.962938,1248
1248_24,Čehi - Bulićeva,45.736742,15.962942,1248
1248_27,Čehi - Bulićeva,45.736886,15.962938,1248
1248_28,Čehi - Bulićeva,45.736886,15.962938,1248
1248,Čehi - Bulićeva,45.736850,15.962939,
1250_21,Hrašće-centar,45.730942,16.003693,1250
1250_22,Hrašće-centar,45.730906,16.004252,1250
1250_24,Hrašće-centar,45.731260,16.004120,1250
1250,Hrašće-centar,45.731036,16.004022,
1251_23,Arbanasova 44,45.726209,16.003078,1251
1251_24,Arbanasova 44,45.725846,16.002811,1251
1251,Arbanasova 44,45.726027,16.002944,
1252_23,Put za G. Lomnicu,45.716138,15.996166,1252
1252_24,Put za G. Lomnicu,45.716082,15.996127,1252
1252,Put za G. Lomnicu,45.716110,15.996146,
1253_23,"Lomnica, šljunčara",45.720311,16.018298,1253
1253_24,"Lomnica, šljunčara",45.719454,16.019327,1253
1253,"Lomnica, šljunčara",45.719883,16.018812,
1254_23,"Lomnica, Deverić. 4",45.716724,16.018290,1254
1254_24,"Lomnica, Deverić. 4",45.716697,16.018264,1254
1254,"Lomnica, Deverić. 4",45.716710,16.018277,
1255_23,"Lomnica,Stepanska 72",45.714225,16.016533,1255
1255_24,"Lomnica,Stepanska 72",45.714160,16.016625,1255
1255,"Lomnica,Stepanska 72",45.714193,16.016579,
1256_21,"Lomnica,Step.6 okret",45.712077,16.020300,1256
1256_22,"Lomnica,Step.6 okret",45.712638,16.019768,1256
1256,"Lomnica,Step.6 okret",45.712357,16.020034,
1257_23,Lomnica-dom zdravlja,45.714029,16.022916,1257
1257_24,Lomnica-dom zdravlja,45.714530,16.023049,1257
1257,Lomnica-dom zdravlja,45.714279,16.022982,
1258_21,Lomnica - Odranska 6,45.712420,16.028403,1258
1258_22,Lomnica - Odranska 6,45.712708,16.027781,1258
1258,Lomnica - Odranska 6,45.712564,16.028092,
1259_21,"Gradići, K.Tomis. 85",45.709307,16.036056,1259
1259_22,"Gradići, K.Tomis. 85",45.709497,16.035488,1259
1259,"Gradići, K.Tomis. 85",45.709402,16.035772,
1261_23,Gradići društveni d.,45.704584,16.037808,1261
1261_24,Gradići društveni d.,45.704599,16.037840,1261
1261,Gradići društveni d.,45.704592,16.037824,
1262_23,Gradići novo naselje,45.700767,16.037211,1262
1262_24,Gradići novo naselje,45.700857,16.037174,1262
1262,Gradići novo naselje,45.700812,16.037193,
1263_23,Petrovina 6,45.696458,16.036185,1263
1263_24,Petrovina 6,45.696182,16.035648,1263
1263,Petrovina 6,45.696320,16.035916,
1264_23,"Petrovina,društ. dom",45.692703,16.031370,1264
1264_24,"Petrovina,društ. dom",45.692703,16.031370,1264
1264,"Petrovina,društ. dom",45.692703,16.031370,
1265_23,"Hrašće, mljekara",45.735632,16.007826,1265
1265_24,"Hrašće, mljekara",45.735402,16.007616,1265
1265,"Hrašće, mljekara",45.735517,16.007721,
1266_21,Lukavec-Dolens. d.d.,45.704520,15.989874,1266
1266_22,Lukavec-Dolens. d.d.,45.704846,15.989910,1266
1266_23,Lukavec-Dolens. d.d.,45.704661,15.989248,1266
1266_24,Lukavec-Dolens. d.d.,45.704626,15.989241,1266
1266,Lukavec-Dolens. d.d.,45.704663,15.989568,
1267_23,Peršinovec,45.657483,15.973872,1267
1267_24,Peršinovec,45.657328,15.973715,1267
1267,Peršinovec,45.657405,15.973793,
1268_24,Peršinovec 72,45.652487,15.966873,1268
1268,Peršinovec 72,45.652487,15.966873,
1269_23,Hudobička 36,45.707578,15.893918,1269
1269_24,Hudobička 36,45.707035,15.893393,1269
1269,Hudobička 36,45.707306,15.893655,
1270_23,"Dubranec, spomenik",45.627107,15.958738,1270
1270_24,"Dubranec, spomenik",45.627119,15.958490,1270
1270,"Dubranec, spomenik",45.627113,15.958614,
1271_23,"Dubranec,vikend nas.",45.619875,15.960230,1271
1271_24,"Dubranec,vikend nas.",45.620106,15.960255,1271
1271,"Dubranec,vikend nas.",45.619991,15.960242,
1272_23,"Dubranec, centar",45.611829,15.965428,1272
1272_24,"Dubranec, centar",45.611740,15.965412,1272
1272,"Dubranec, centar",45.611784,15.965420,
1273_23,"Dubranec,put za Gust",45.606344,15.967375,1273
1273_24,"Dubranec,put za Gust",45.606270,15.967305,1273
1273,"Dubranec,put za Gust",45.606307,15.967340,
1274_23,Prvonožina,45.598592,15.964620,1274
1274_24,Prvonožina,45.598509,15.964663,1274
1274,Prvonožina,45.598551,15.964641,
1275_23,Jerebić,45.587550,15.963010,1275
1275_24,Jerebić,45.587405,15.962783,1275
1275,Jerebić,45.587478,15.962896,
1276_23,Cerovski - škola,45.583161,15.953397,1276
1276_24,Cerovski - škola,45.583093,15.953186,1276
1276,Cerovski - škola,45.583127,15.953291,
1277_23,Cerovski - selo,45.575368,15.943638,1277
1277_24,Cerovski - selo,45.575327,15.943599,1277
1277,Cerovski - selo,45.575347,15.943619,
1278_23,Žužić Brdo,45.567115,15.945480,1278
1278_24,Žužić Brdo,45.567085,15.945371,1278
1278,Žužić Brdo,45.567100,15.945426,
1286_23,Vukomerić I,45.620208,15.950570,1286
1286_24,Vukomerić I,45.620151,15.950509,1286
1286,Vukomerić I,45.620179,15.950539,
1287_23,"Vukomerić, okretište",45.615571,15.948520,1287
1287_24,"Vukomerić, okretište",45.615571,15.948520,1287
1287,"Vukomerić, okretište",45.615571,15.948520,
1288_23,Sisačka-nadv.-sjever,45.754450,15.960887,1288
1288_24,Sisačka-nadv.-sjever,45.753878,15.962116,1288
1288,Sisačka-nadv.-sjever,45.754164,15.961502,
1289_23,Gradska-Malomlačka,45.733669,15.976288,1289
1289_24,Gradska-Malomlačka,45.733938,15.976028,1289
1289,Gradska-Malomlačka,45.733804,15.976158,
1290_23,Malomlačka-Igrališna,45.729440,15.976912,1290
1290_24,Malomlačka-Igrališna,45.730025,15.976127,1290
1290,Malomlačka-Igrališna,45.729732,15.976519,
1291_23,Malomlačka 30,45.726697,15.980633,1291
1291_24,Malomlačka 30,45.726530,15.980898,1291
1291_25,Malomlačka 30,45.726704,15.980637,1291
1291,Malomlačka 30,45.726644,15.980723,
1292_21,Odra-Malomlačka,45.729994,15.986005,1292
1292_23,Odra-Malomlačka,45.730036,15.986194,1292
1292_24,Odra-Malomlačka,45.730001,15.986056,1292
1292,Odra-Malomlačka,45.730011,15.986085,
1293_21,Odra-Svetog Izidora,45.729773,15.993341,1293
1293_22,Odra-Svetog Izidora,45.729874,15.992315,1293
1293_23,Odra-Svetog Izidora,45.729920,15.992351,1293
1293_24,Odra-Svetog Izidora,45.729816,15.993328,1293
1293,Odra-Svetog Izidora,45.729845,15.992834,
1294_23,Odranska - Đačka,45.731088,15.996933,1294
1294_24,Odranska - Đačka,45.731224,15.997683,1294
1294,Odranska - Đačka,45.731156,15.997308,
1295_21,Lukav.-put za Dubra.,45.702401,15.990123,1295
1295_22,Lukav.-put za Dubra.,45.702425,15.990176,1295
1295,Lukav.-put za Dubra.,45.702413,15.990150,
1296_21,Lukav.-Školska-Lužec,45.699903,15.997088,1296
1296_22,Lukav.-Školska-Lužec,45.700148,15.996599,1296
1296,Lukav.-Školska-Lužec,45.700025,15.996843,
1297_21,Kolodvorska 48,45.713498,16.060430,1297
1297_22,Kolodvorska 48,45.713866,16.060799,1297
1297,Kolodvorska 48,45.713682,16.060615,
1331_23,Ščitarjevo III,45.773145,16.117163,1331
1331_24,Ščitarjevo III,45.772994,16.117173,1331
1331,Ščitarjevo III,45.773070,16.117168,
1333_23,Kalamiri,45.876284,15.796182,1333
1333_24,Kalamiri,45.876907,15.796755,1333
1333,Kalamiri,45.876595,15.796468,
1334_23,Kupljenska,45.875498,15.795780,1334
1334_24,Kupljenska,45.874089,15.794798,1334
1334,Kupljenska,45.874793,15.795289,
1335_23,Trg dr. Tuđmana,45.868980,15.794230,1335
1335_24,Trg dr. Tuđmana,45.869270,15.794235,1335
1335,Trg dr. Tuđmana,45.869125,15.794232,
1337_23,Gajeva,45.865969,15.793529,1337
1337_24,Gajeva,45.865221,15.792740,1337
1337,Gajeva,45.865595,15.793135,
1345_23,Miroševečka 137,45.867699,16.037313,1345
1345_24,Miroševečka 137,45.867921,16.037168,1345
1345,Miroševečka 137,45.867810,16.037240,
1347_23,Knežija,45.788807,15.945608,1347
1347_24,Knežija,45.787297,15.946516,1347
1347,Knežija,45.788052,15.946062,
1348_23,Blaža Trogiranina,45.791676,15.944850,1348
1348_24,Blaža Trogiranina,45.790753,15.944862,1348
1348,Blaža Trogiranina,45.791214,15.944856,
1350_21,Zrak. tehnička škola,45.734279,16.069914,1350
1350_22,Zrak. tehnička škola,45.734462,16.070726,1350
1350,Zrak. tehnička škola,45.734370,16.070320,
1351_23,Oborovo-Brezinska,45.908621,15.879501,1351
1351_24,Oborovo-Brezinska,45.908759,15.879721,1351
1351,Oborovo-Brezinska,45.908690,15.879611,
1355_24,Ljubijska-Hrv.Prolj.,45.827188,16.043899,1355
1355_32,Ljubijska-Hrv.Prolj.,45.827163,16.043975,1355
1355,Ljubijska-Hrv.Prolj.,45.827176,16.043937,
1363_21,Petrova 116,45.819850,16.003754,1363
1363,Petrova 116,45.819850,16.003754,
1375_1,Sveučilišna al.,45.799814,15.971155,1375
1375_2,Sveučilišna al.,45.799789,15.969352,1375
1375,Sveučilišna al.,45.799802,15.970253,
1376_24,Zelengaj 53,45.830901,15.965987,1376
1376,Zelengaj 53,45.830901,15.965987,
1377_24,"Zelengaj,bolnica",45.826266,15.966330,1377
1377,"Zelengaj,bolnica",45.826266,15.966330,
1383_22,Vikend naselje,45.660765,15.915299,1383
1383_23,Vikend naselje,45.661230,15.915945,1383
1383,Vikend naselje,45.660998,15.915622,
1384_23,Čakovica,45.656692,15.913068,1384
1384_24,Čakovica,45.656386,15.912908,1384
1384,Čakovica,45.656539,15.912988,
1385_23,"G.Trpuci,okretište",45.649756,15.909155,1385
1385_24,"G.Trpuci,okretište",45.649822,15.908910,1385
1385,"G.Trpuci,okretište",45.649789,15.909033,
1387_23,Sv. Leopolda Mandića,45.830657,16.041589,1387
1387_24,Sv. Leopolda Mandića,45.829878,16.042134,1387
1387,Sv. Leopolda Mandića,45.830267,16.041861,
1388_23,Kustošijansk-Krvarić,45.836280,15.920811,1388
1388_24,Kustošijansk-Krvarić,45.836978,15.919376,1388
1388,Kustošijansk-Krvarić,45.836629,15.920094,
1389_21,Trg Dr. Tuđmana,45.869631,15.794963,1389
1389_22,Trg Dr. Tuđmana,45.869669,15.794819,1389
1389_25,Trg Dr. Tuđmana,45.869669,15.794819,1389
1389,Trg Dr. Tuđmana,45.869657,15.794867,
1390_23,Štuglenica,45.854119,16.081217,1390
1390,Štuglenica,45.854119,16.081217,
1391_24,Senščak II. odvojak,45.856625,16.079532,1391
1391,Senščak II. odvojak,45.856625,16.079532,
1392_24,Senščak I. odvojak,45.854598,16.078210,1392
1392,Senščak I. odvojak,45.854598,16.078210,
1393_21,Novoselečki put,45.853937,16.081137,1393
1393,Novoselečki put,45.853937,16.081137,
1395_23,Glavna,45.824698,16.131593,1395
1395,Glavna,45.824698,16.131593,
1396_23,Letnička,45.830294,16.132518,1396
1396,Letnička,45.830294,16.132518,
1400_23,Trnava I-trgovina,45.812200,16.060585,1400
1400_24,Trnava I-trgovina,45.811702,16.060459,1400
1400,Trnava I-trgovina,45.811951,16.060522,
1401_21,Ljudevita Posavskog,45.821106,16.103338,1401
1401_23,Ljudevita Posavskog,45.822041,16.101144,1401
1401_24,Ljudevita Posavskog,45.821965,16.101089,1401
1401,Ljudevita Posavskog,45.821704,16.101857,
1402_21,Jelkovečka,45.819471,16.117484,1402
1402_22,Jelkovečka,45.819514,16.120101,1402
1402_26,Jelkovečka,45.819521,16.116846,1402
1402,Jelkovečka,45.819502,16.118144,
1403_21,Ivice Lovinčića,45.819144,16.124910,1403
1403_22,Ivice Lovinčića,45.818988,16.125885,1403
1403,Ivice Lovinčića,45.819066,16.125397,
1404_23,Ferde Kocha,45.818315,16.129803,1404
1404_24,Ferde Kocha,45.818178,16.130006,1404
1404,Ferde Kocha,45.818246,16.129904,
1405_21,Sel.-Puđak Kate okr.,45.815817,16.134339,1405
1405,Sel.-Puđak Kate okr.,45.815817,16.134339,
1406_23,Nova cesta,45.813554,16.119161,1406
1406_24,Nova cesta,45.814353,16.119257,1406
1406,Nova cesta,45.813954,16.119209,
1407_23,Pirinova,45.810544,16.118488,1407
1407_24,Pirinova,45.810095,16.118637,1407
1407,Pirinova,45.810320,16.118563,
1408_23,Savska - Metro,45.804810,16.119288,1408
1408_24,Savska - Metro,45.805202,16.119570,1408
1408,Savska - Metro,45.805006,16.119429,
1409_23,Đačka - Nova,45.735635,15.996847,1409
1409_24,Đačka - Nova,45.734744,15.996223,1409
1409,Đačka - Nova,45.735189,15.996535,
1411_23,Lukavec - Kanal,45.707252,15.992746,1411
1411_24,Lukavec - Kanal,45.707296,15.992815,1411
1411,Lukavec - Kanal,45.707274,15.992781,
1412_23,Markuševec,45.658917,15.964960,1412
1412_24,Markuševec,45.658901,15.964248,1412
1412,Markuševec,45.658909,15.964604,
1413_21,Turopolj.-Markulini,45.659959,15.956443,1413
1413_22,Turopolj.-Markulini,45.659979,15.956957,1413
1413,Turopolj.-Markulini,45.659969,15.956700,
1414_21,Dragonožec-kapela,45.660921,15.948639,1414
1414_22,Dragonožec-kapela,45.660767,15.949612,1414
1414,Dragonožec-kapela,45.660844,15.949125,
1416_23,Dobrodolska,45.854354,16.111641,1416
1416,Dobrodolska,45.854354,16.111641,
1417_23,Dobrodol-Šimunč.,45.854682,16.108417,1417
1417_24,Dobrodol-Šimunč.,45.854579,16.108569,1417
1417,Dobrodol-Šimunč.,45.854630,16.108493,
1418_23,Grahovec,45.858175,16.106968,1418
1418_24,Grahovec,45.858139,16.106966,1418
1418,Grahovec,45.858157,16.106967,
1419_23,Šiletići,45.866482,16.097321,1419
1419_24,Šiletići,45.866165,16.097175,1419
1419,Šiletići,45.866324,16.097248,
1420_23,Mudifaji,45.870070,16.096255,1420
1420_24,Mudifaji,45.869925,16.096023,1420
1420,Mudifaji,45.869998,16.096139,
1421_23,Šimunčevec-druš. dom,45.878178,16.091720,1421
1421_24,Šimunčevec-druš. dom,45.878182,16.091729,1421
1421,Šimunčevec-druš. dom,45.878180,16.091724,
1422_23,Žukčićeva 19,45.849320,16.082657,1422
1422_24,Žukčićeva 19,45.849010,16.082906,1422
1422,Žukčićeva 19,45.849165,16.082782,
1424_21,Mije Haleuša,45.801730,16.101581,1424
1424_22,Mije Haleuša,45.801566,16.100767,1424
1424,Mije Haleuša,45.801648,16.101174,
1426_23,Vugrovečka-Vukasi,45.891721,16.098832,1426
1426_24,Vugrovečka-Vukasi,45.891730,16.098452,1426
1426,Vugrovečka-Vukasi,45.891726,16.098642,
1428_23,Veslačka,45.788886,15.955104,1428
1428_24,Veslačka,45.788497,15.954769,1428
1428,Veslačka,45.788691,15.954937,
1464_23,Sarajevsk-Vatikanska,45.769325,16.005381,1464
1464_24,Sarajevsk-Vatikanska,45.767603,16.005751,1464
1464,Sarajevsk-Vatikanska,45.768464,16.005566,
1465_22,Sarajevsk-Ukrajinska,45.773268,16.002605,1465
1465_23,Sarajevsk-Ukrajinska,45.774548,16.003668,1465
1465_24,Sarajevsk-Ukrajinska,45.772531,16.003828,1465
1465,Sarajevsk-Ukrajinska,45.773449,16.003367,
1466_23,Miroševečka 218,45.878590,16.033263,1466
1466_24,Miroševečka 218,45.878918,16.033075,1466
1466_28,Miroševečka 218,45.878918,16.033075,1466
1466,Miroševečka 218,45.878809,16.033137,
1495_22,Tomislavov dom,45.897966,15.946613,1495
1495_26,Tomislavov dom,45.897966,15.946613,1495
1495,Tomislavov dom,45.897966,15.946613,
1501_24,Zelengaj 65,45.833030,15.965143,1501
1501,Zelengaj 65,45.833030,15.965143,
1502_23,Tumbri,45.677709,15.867649,1502
1502_24,Tumbri,45.677586,15.867030,1502
1502,Tumbri,45.677647,15.867340,
1518_23,D.Mandića-Međašni kl,45.834445,15.892167,1518
1518,D.Mandića-Međašni kl,45.834445,15.892167,
1519_23,Donji Borčec,45.836830,15.888657,1519
1519_24,Donji Borčec,45.836830,15.888657,1519
1519,Donji Borčec,45.836830,15.888657,
1520_21,Letnička - škola,45.830595,16.135979,1520
1520_25,Letnička - škola,45.830595,16.135979,1520
1520,Letnička - škola,45.830595,16.135979,
1521_24,Leskovec - Primorska,45.829335,16.142141,1521
1521,Leskovec - Primorska,45.829335,16.142141,
1522_24,Popovečka -Leskovec,45.828565,16.144915,1522
1522,Popovečka -Leskovec,45.828565,16.144915,
1525_21,Budenečka 34,45.834699,16.179151,1525
1525_22,Budenečka 34,45.834716,16.179160,1525
1525,Budenečka 34,45.834707,16.179156,
1526_23,Treščak,45.841349,15.935961,1526
1526_24,Treščak,45.841428,15.935919,1526
1526,Treščak,45.841388,15.935940,
1527_23,Vida Ročića 117,45.882067,16.028602,1527
1527_24,Vida Ročića 117,45.882066,16.028378,1527
1527,Vida Ročića 117,45.882066,16.028490,
1552_21,Kampus fakultet,45.811220,16.042063,1552
1552_22,Kampus fakultet,45.811220,16.042063,1552
1552,Kampus fakultet,45.811220,16.042063,
1553_22,Kampus - restoran,45.813257,16.041561,1553
1553,Kampus - restoran,45.813257,16.041561,
1554_24,Getaldićeva-Gospića,45.803408,16.027733,1554
1554,Getaldićeva-Gospića,45.803408,16.027733,
1555_23,Čavićeva-Gospića,45.801525,16.031568,1555
1555,Čavićeva-Gospića,45.801525,16.031568,
1557_23,Vrhovec 196,45.831004,15.948421,1557
1557_24,Vrhovec 196,45.831178,15.948578,1557
1557,Vrhovec 196,45.831091,15.948499,
1559_23,Kosirnikova-Jelenov.,45.818716,15.954392,1559
1559_24,Kosirnikova-Jelenov.,45.818823,15.954327,1559
1559,Kosirnikova-Jelenov.,45.818769,15.954359,
1560_23,Jelenovac 8,45.823831,15.953187,1560
1560,Jelenovac 8,45.823831,15.953187,
1561_23,Jelenovac-Šercerova,45.829761,15.952569,1561
1561,Jelenovac-Šercerova,45.829761,15.952569,
1562_24,Šercerova 84,45.828147,15.955359,1562
1562,Šercerova 84,45.828147,15.955359,
1563_21,Šercerova-Šer.prečac,45.825698,15.957695,1563
1563,Šercerova-Šer.prečac,45.825698,15.957695,
1564_23,Šercerova 31,45.825201,15.958384,1564
1564,Šercerova 31,45.825201,15.958384,
1565_24,Kosirnikova-SRC Jel,45.821571,15.956238,1565
1565,Kosirnikova-SRC Jel,45.821571,15.956238,
1567_24,Žensko sedlo,45.895544,15.940398,1567
1567,Žensko sedlo,45.895544,15.940398,
1571_23,Radnička 182,45.794708,16.022804,1571
1571_24,Radnička 182,45.794074,16.023307,1571
1571,Radnička 182,45.794391,16.023056,
1615_21,Staro okretište,45.716029,15.822521,1615
1615_24,Staro okretište,45.716785,15.822071,1615
1615,Staro okretište,45.716407,15.822296,
1616_21,Željeznička stanica,45.713794,15.816907,1616
1616_22,Željeznička stanica,45.713772,15.816828,1616
1616,Željeznička stanica,45.713783,15.816868,
1617_24,Kosirnikova 9,45.817042,15.953991,1617
1617,Kosirnikova 9,45.817042,15.953991,
1618_22,Čileanska-Peruanska,45.818402,15.876893,1618
1618,Čileanska-Peruanska,45.818402,15.876893,
1619_21,Park 101.Brigade,45.817608,15.875368,1619
1619_23,Park 101.Brigade,45.817365,15.875244,1619
1619,Park 101.Brigade,45.817486,15.875306,
1634_22,Bol. Jankomir,45.806001,15.875075,1634
1634_23,Bol. Jankomir,45.806001,15.875075,1634
1634_24,Bol. Jankomir,45.806001,15.875075,1634
1634,Bol. Jankomir,45.806001,15.875075,
1639_21,Samostan,45.870723,15.782208,1639
1639_22,Samostan,45.871089,15.780201,1639
1639,Samostan,45.870906,15.781205,
1640_21,Bregovita,45.871888,15.773276,1640
1640_22,Bregovita,45.872716,15.773058,1640
1640,Bregovita,45.872302,15.773167,
1641_22,Groblje Zaprešić,45.875639,15.774381,1641
1641,Groblje Zaprešić,45.875639,15.774381,
1642_23,Remetinečki gaj,45.770422,15.945212,1642
1642,Remetinečki gaj,45.770422,15.945212,
1643_24,Arena Zagreb,45.772007,15.944633,1643
1643_53,Arena Zagreb,45.772334,15.944799,1643
1643,Arena Zagreb,45.772171,15.944716,
1644_21,Klanjec,45.732376,15.883536,1644
1644_22,Klanjec,45.731660,15.883976,1644
1644,Klanjec,45.732018,15.883756,
1645_21,Demerje - škola,45.731103,15.885931,1645
1645_22,Demerje - škola,45.730607,15.885398,1645
1645,Demerje - škola,45.730855,15.885664,
1655_23,Horvatovac 40,45.820032,15.992560,1655
1655,Horvatovac 40,45.820032,15.992560,
1656_23,Horvatovac-trgovina,45.821820,15.990874,1656
1656,Horvatovac-trgovina,45.821820,15.990874,
1657_23,Horvatovac-Zelenjak,45.823754,15.989993,1657
1657,Horvatovac-Zelenjak,45.823754,15.989993,
1658_23,Horvatovac - PMF,45.826262,15.988035,1658
1658,Horvatovac - PMF,45.826262,15.988035,
1659_24,Voćarska-sjemenište,45.822132,15.986093,1659
1659,Voćarska-sjemenište,45.822132,15.986093,
1660_21,Voćarska-društveni d,45.818656,15.987837,1660
1660,Voćarska-društveni d,45.818656,15.987837,
1661_21,Voćarska-Babonićeva,45.817454,15.994420,1661
1661,Voćarska-Babonićeva,45.817454,15.994420,
1662_21,Kozari put 1-odv.5,45.792000,16.043171,1662
1662_22,Kozari put 1-odv.5,45.791481,16.041873,1662
1662,Kozari put 1-odv.5,45.791741,16.042522,
1663_21,Kozari Putevi,45.792681,16.047121,1663
1663_22,Kozari Putevi,45.792681,16.047121,1663
1663,Kozari Putevi,45.792681,16.047121,
1664_21,Gračansko dolje,45.861027,15.983181,1664
1664_22,Gračansko dolje,45.861200,15.982796,1664
1664_26,Gračansko dolje,45.861607,15.983143,1664
1664_30,Gračansko dolje,45.861607,15.983143,1664
1664,Gračansko dolje,45.861360,15.983066,
1665_32,Sesvete-ukrcaj,45.825770,16.108543,1665
1665_42,Sesvete-ukrcaj,45.825864,16.108209,1665
1665_52,Sesvete-ukrcaj,45.825864,16.108209,1665
1665_62,Sesvete-ukrcaj,45.825922,16.107930,1665
1665_72,Sesvete-ukrcaj,45.826093,16.107175,1665
1665_92,Sesvete-ukrcaj,45.826164,16.106927,1665
1665,Sesvete-ukrcaj,45.825946,16.107832,
1666_23,Lj.Posavsk.-Kelekova,45.817688,16.101961,1666
1666_24,Lj.Posavsk.-Kelekova,45.820573,16.101294,1666
1666,Lj.Posavsk.-Kelekova,45.819130,16.101627,
1667_21,144 brigade-Lj.Posav,45.812851,16.102944,1667
1667,144 brigade-Lj.Posav,45.812851,16.102944,
1668_21,Jelkovec-vrtić,45.812794,16.108915,1668
1668_22,Jelkovec-vrtić,45.812912,16.107286,1668
1668,Jelkovec-vrtić,45.812853,16.108101,
1669_24,Jelkovec-tržnica,45.812274,16.114813,1669
1669_28,Jelkovec-tržnica,45.812872,16.114021,1669
1669,Jelkovec-tržnica,45.812573,16.114417,
1670_22,Rim.put-dj.igralište,45.809764,16.112755,1670
1670_23,Rim.put-dj.igralište,45.810427,16.114843,1670
1670_27,Rim.put-dj.igralište,45.810460,16.114849,1670
1670,Rim.put-dj.igralište,45.810217,16.114149,
1671_21,Rimski put-bazen,45.809829,16.105898,1671
1671_22,Rimski put-bazen,45.809920,16.101963,1671
1671,Rimski put-bazen,45.809875,16.103931,
1672_22,Lj.Posav.-Rimski put,45.809920,16.101963,1672
1672_24,Lj.Posav.-Rimski put,45.809257,16.101029,1672
1672,Lj.Posav.-Rimski put,45.809589,16.101496,
1673_21,Vrapče-želj.stanica,45.811755,15.895267,1673
1673_22,Vrapče-želj.stanica,45.811983,15.897261,1673
1673,Vrapče-želj.stanica,45.811869,15.896264,
1674_23,Hipodrom,45.785578,15.964325,1674
1674,Hipodrom,45.785578,15.964325,
1675_21,Stari Savski most,45.783262,15.955702,1675
1675_22,Stari Savski most,45.783616,15.956102,1675
1675,Stari Savski most,45.783439,15.955902,
1676_21,Južna obala 4,45.785208,15.961288,1676
1676,Južna obala 4,45.785208,15.961288,
1694_23,Hercegov gaj,45.877067,16.018609,1694
1694_24,Hercegov gaj,45.876980,16.018216,1694
1694,Hercegov gaj,45.877024,16.018412,
1695_21,Laskočica 2,45.733650,15.977115,1695
1695,Laskočica 2,45.733650,15.977115,
1696_21,Laskočica 42,45.731890,15.982221,1696
1696,Laskočica 42,45.731890,15.982221,
1697_23,Manterovčak 46,45.822025,15.902716,1697
1697,Manterovčak 46,45.822025,15.902716,
1698_23,Manterovčak 78,45.824090,15.900157,1698
1698,Manterovčak 78,45.824090,15.900157,
1699_24,Jačkovina 53,45.819840,15.897714,1699
1699,Jačkovina 53,45.819840,15.897714,
1700_21,Jačkovina 46,45.817512,15.900204,1700
1700,Jačkovina 46,45.817512,15.900204,
1701_23,Vidovčica,45.833688,15.949490,1701
1701_24,Vidovčica,45.833469,15.949386,1701
1701,Vidovčica,45.833578,15.949438,
1702_23,Vidovčica I.,45.840534,15.952281,1702
1702_24,Vidovčica I.,45.839657,15.952263,1702
1702,Vidovčica I.,45.840096,15.952272,
1703_22,Puškarićeva-škola,45.761460,15.878908,1703
1703,Puškarićeva-škola,45.761460,15.878908,
1704_21,Voćarska 47,45.817180,15.990857,1704
1704,Voćarska 47,45.817180,15.990857,
1705_21,Veliki dol 30,45.833294,15.999021,1705
1705,Veliki dol 30,45.833294,15.999021,
1706_23,Rim 14a,45.835435,15.999788,1706
1706,Rim 14a,45.835435,15.999788,
1707_23,Rim 60,45.837886,15.995595,1707
1707,Rim 60,45.837886,15.995595,
1708_24,Gorice 69,45.840499,15.990238,1708
1708,Gorice 69,45.840499,15.990238,
1709_24,Gorice 45,45.837724,15.990598,1709
1709,Gorice 45,45.837724,15.990598,
1710_24,Gorice - Korito,45.834552,15.992405,1710
1710,Gorice - Korito,45.834552,15.992405,
1711_23,Medpotoki 30,45.822225,15.881461,1711
1711,Medpotoki 30,45.822225,15.881461,
1712_23,Orešje 2 a,45.824162,15.882832,1712
1712,Orešje 2 a,45.824162,15.882832,
1713_23,Borovina,45.827639,15.885149,1713
1713_24,Borovina,45.827425,15.885098,1713
1713,Borovina,45.827532,15.885124,
1714_22,Orešje 47c,45.831797,15.883940,1714
1714_26,Orešje 47c,45.831797,15.883940,1714
1714,Orešje 47c,45.831797,15.883940,
1715_21,Arena centar,45.769173,15.940826,1715
1715_22,Arena centar,45.769438,15.943593,1715
1715,Arena centar,45.769306,15.942209,
1716_21,Jaruščica,45.768920,15.935903,1716
1716_22,Jaruščica,45.768977,15.936238,1716
1716,Jaruščica,45.768948,15.936070,
1717_24,Orešje 3,45.824384,15.883054,1717
1717,Orešje 3,45.824384,15.883054,
1718_21,Gospodska 108,45.820300,15.881933,1718
1718_23,Gospodska 108,45.820376,15.881654,1718
1718,Gospodska 108,45.820338,15.881793,
1722_22,Podbrežje,45.767403,15.979462,1722
1722_23,Podbrežje,45.768023,15.980772,1722
1722_24,Podbrežje,45.766620,15.980645,1722
1722,Podbrežje,45.767349,15.980293,
1723_22,Zagrebačka 94,45.826471,16.090762,1723
1723,Zagrebačka 94,45.826471,16.090762,
1724_23,Bikčevićeva staza,45.869650,15.978740,1724
1724,Bikčevićeva staza,45.869650,15.978740,
1725_23,Šumarske jaslice,45.898437,15.953917,1725
1725_24,Šumarske jaslice,45.899153,15.953648,1725
1725,Šumarske jaslice,45.898795,15.953783,
1726_24,P.D.Grafičar,45.887250,15.932079,1726
1726,P.D.Grafičar,45.887250,15.932079,
1727_23,A.K.Snježna kraljica,45.902498,15.957960,1727
1727,A.K.Snježna kraljica,45.902498,15.957960,
1729_3,Borovje,45.788807,16.004269,1729
1729_4,Borovje,45.788568,16.004211,1729
1729,Borovje,45.788687,16.004240,
1732_24,Mlinovi 148 a,45.852585,15.958394,1732
1732,Mlinovi 148 a,45.852585,15.958394,
1733_22,Gospodska 92,45.820109,15.884404,1733
1733,Gospodska 92,45.820109,15.884404,
1734_21,Gospodska 59a,45.819699,15.885355,1734
1734,Gospodska 59a,45.819699,15.885355,
1735_22,Kobiljak 69,45.822376,16.159536,1735
1735,Kobiljak 69,45.822376,16.159536,
1736_22,Bijenička-bočalište,45.832428,15.993614,1736
1736,Bijenička-bočalište,45.832428,15.993614,
1737_23,Manterovčak 66,45.822895,15.901064,1737
1737,Manterovčak 66,45.822895,15.901064,
1738_24,Jačkovina 105,45.823529,15.898720,1738
1738,Jačkovina 105,45.823529,15.898720,
1739_23,Put za Bediće,45.859304,16.040069,1739
1739_24,Put za Bediće,45.859635,16.040071,1739
1739,Put za Bediće,45.859469,16.040070,
1740_23,Kačićeva-Kolodvorska,45.713151,16.057986,1740
1740,Kačićeva-Kolodvorska,45.713151,16.057986,
1741_21,Željezn.-Vukomerička,45.714319,16.045442,1741
1741_22,Željezn.-Vukomerička,45.713111,16.044564,1741
1741,Željezn.-Vukomerička,45.713715,16.045003,
1742_22,"Gradići,K.Tomis. 46",45.708180,16.039852,1742
1742,"Gradići,K.Tomis. 46",45.708180,16.039852,
1743_21,"Gradići,K.Tomis. 57",45.708018,16.040405,1743
1743,"Gradići,K.Tomis. 57",45.708018,16.040405,
1744_24,Gradićka 4,45.706520,16.040067,1744
1744,Gradićka 4,45.706520,16.040067,
1757_22,Žitnjak,45.798099,16.035373,1757
1757,Žitnjak,45.798099,16.035373,
1760_23,Savišće,45.789170,16.033671,1760
1760_24,Savišće,45.789163,16.033682,1760
1760,Savišće,45.789166,16.033677,
1764_23,Granešina-groblje,45.849999,16.048786,1764
1764_24,Granešina-groblje,45.849619,16.049250,1764
1764,Granešina-groblje,45.849809,16.049018,
1766_24,INA,45.730626,16.024891,1766
1766,INA,45.730626,16.024891,
1771_22,Mrkšina-raskrižje,45.755106,15.963779,1771
1771_23,Mrkšina-raskrižje,45.754961,15.962828,1771
1771,Mrkšina-raskrižje,45.755033,15.963303,
1772_21,Hrušćica,45.790457,16.136733,1772
1772_22,Hrušćica,45.789930,16.135493,1772
1772,Hrušćica,45.790193,16.136113,
1774_22,Slavon.-Lj.Posavskog,45.806573,16.099399,1774
1774_23,Slavon.-Lj.Posavskog,45.807914,16.101073,1774
1774,Slavon.-Lj.Posavskog,45.807243,16.100236,
1775_21,Slavonska-Čulinečka,45.803813,16.076833,1775
1775_22,Slavonska-Čulinečka,45.803579,16.073259,1775
1775,Slavonska-Čulinečka,45.803696,16.075046,
1780_11,Zapruđe,45.778082,16.000883,1780
1780_18,Zapruđe,45.778980,16.001924,1780
1780,Zapruđe,45.778531,16.001404,
1781_11,Žitnjak,45.798842,16.034778,1781
1781,Žitnjak,45.798842,16.034778,
1782_23,Mokrička 8,45.863348,15.790697,1782
1782_24,Mokrička 8,45.862839,15.790582,1782
1782,Mokrička 8,45.863093,15.790639,
1783_11,Park Maksimir,45.819781,16.014988,1783
1783,Park Maksimir,45.819781,16.014988,
1784_23,Micani,45.760896,15.833522,1784
1784_24,Micani,45.761466,15.832773,1784
1784,Micani,45.761181,15.833148,
1785_21,Stupnički Obrež,45.766095,15.830388,1785
1785_22,Stupnički Obrež,45.766095,15.830388,1785
1785,Stupnički Obrež,45.766095,15.830388,
1786_24,Botinka,45.756413,15.834093,1786
1786,Botinka,45.756413,15.834093,
1787_4,Mandlova,45.823816,16.035699,1787
1787,Mandlova,45.823816,16.035699,
1788_21,Desprimska 34,45.726705,15.900404,1788
1788,Desprimska 34,45.726705,15.900404,
1789_24,Drežnik,45.722665,15.901282,1789
1789,Drežnik,45.722665,15.901282,
1790_22,Brezovica škola,45.724590,15.907008,1790
1790_26,Brezovica škola,45.724590,15.907008,1790
1790,Brezovica škola,45.724590,15.907008,
1791_22,Golobreška-1.odvojak,45.730277,15.902863,1791
1791,Golobreška-1.odvojak,45.730277,15.902863,
1792_23,Jarek,45.838373,15.824310,1792
1792,Jarek,45.838373,15.824310,
1794_12,Sopot,45.777720,15.984625,1794
1794,Sopot,45.777720,15.984625,
1799_22,Ježdovečka 110,45.778278,15.839344,1799
1799,Ježdovečka 110,45.778278,15.839344,
1826_21,Bijenička 134,45.832421,15.992463,1826
1826,Bijenička 134,45.832421,15.992463,
1827_24,Pavlići,45.674911,15.823561,1827
1827,Pavlići,45.674911,15.823561,
1828_23,Kosirnikova 12,45.816861,15.953931,1828
1828,Kosirnikova 12,45.816861,15.953931,
1829_21,Prevendari,45.707599,15.804884,1829
1829_22,Prevendari,45.707356,15.804617,1829
1829,Prevendari,45.707478,15.804751,
1830_23,Mavračići,45.702633,15.798402,1830
1830_24,Mavračići,45.702328,15.798316,1830
1830,Mavračići,45.702481,15.798359,
1831_22,Derdići,45.704239,15.789245,1831
1831_24,Derdići,45.704016,15.789949,1831
1831,Derdići,45.704127,15.789597,
1832_23,Komari,45.700440,15.783529,1832
1832_24,Komari,45.700440,15.783529,1832
1832,Komari,45.700440,15.783529,
1833_22,Novoselečki put 81,45.848075,16.067783,1833
1833,Novoselečki put 81,45.848075,16.067783,
1834_21,Novoselečki put 83,45.847880,16.068214,1834
1834,Novoselečki put 83,45.847880,16.068214,
1840_23,Garaža Tuškanac,45.815922,15.969813,1840
1840_24,Garaža Tuškanac,45.815889,15.969725,1840
1840,Garaža Tuškanac,45.815905,15.969769,
1842_22,Markov trg,45.816670,15.973925,1842
1842,Markov trg,45.816670,15.973925,
1843_21,Veliko Polje,45.732449,16.017317,1843
1843,Veliko Polje,45.732449,16.017317,
1844_21,Mate Lovraka,45.840081,16.056924,1844
1844_22,Mate Lovraka,45.840230,16.057810,1844
1844,Mate Lovraka,45.840155,16.057367,
1845_23,Srebrnjak 132,45.829106,15.991472,1845
1845,Srebrnjak 132,45.829106,15.991472,
1846_23,Gradićka 5,45.706550,16.040051,1846
1846,Gradićka 5,45.706550,16.040051,
1847_23,Peršinovec 68,45.652713,15.967668,1847
1847,Peršinovec 68,45.652713,15.967668,
1849_23,Trg bana J. Jelačića,45.813655,15.976084,1849
1849_24,Trg bana J. Jelačića,45.813655,15.976084,1849
1849,Trg bana J. Jelačića,45.813655,15.976084,
1850_21,Katarinin trg,45.814772,15.974068,1850
1850,Katarinin trg,45.814772,15.974068,
1851_23,Habdelićeva,45.815905,15.975340,1851
1851,Habdelićeva,45.815905,15.975340,
1852_22,Muzej grada Zagreba,45.818077,15.974542,1852
1852_23,Muzej grada Zagreba,45.818299,15.974793,1852
1852,Muzej grada Zagreba,45.818188,15.974668,
1853_23,Kamenita vrata,45.816384,15.975586,1853
1853_24,Kamenita vrata,45.815340,15.975555,1853
1853,Kamenita vrata,45.815862,15.975571,
1854_23,Vinogradska 88 a,45.819928,15.951702,1854
1854,Vinogradska 88 a,45.819928,15.951702,
1856_24,Vinogradska 75,45.819886,15.952029,1856
1856,Vinogradska 75,45.819886,15.952029,
1857_22,Goli Breg - groblje,45.732916,15.896303,1857
1857,Goli Breg - groblje,45.732916,15.896303,
1858_22,Palčići-odvojak,45.731915,15.899844,1858
1858,Palčići-odvojak,45.731915,15.899844,
1859_21,Fakultetsko dobro,45.855955,16.001462,1859
1859_22,Fakultetsko dobro,45.855163,16.003024,1859
1859,Fakultetsko dobro,45.855559,16.002243,
1860_22,Jazbina 166,45.860391,15.996088,1860
1860,Jazbina 166,45.860391,15.996088,
1861_21,Jazbina 159,45.861115,15.995262,1861
1861,Jazbina 159,45.861115,15.995262,
1864_23,Havidić Selo,45.623258,15.934245,1864
1864_24,Havidić Selo,45.623258,15.934245,1864
1864,Havidić Selo,45.623258,15.934245,
1870_21,K.Hruševec-škola,45.945178,15.790721,1870
1870_22,K.Hruševec-škola,45.945062,15.791010,1870
1870,K.Hruševec-škola,45.945120,15.790866,
1871_21,Matije Gupca,45.941488,15.802918,1871
1871_22,Matije Gupca,45.941565,15.802877,1871
1871,Matije Gupca,45.941526,15.802898,
1872_21,K.Hruševec-okret.,45.946094,15.788398,1872
1872_22,K.Hruševec-okret.,45.946094,15.788398,1872
1872,K.Hruševec-okret.,45.946094,15.788398,
1873_23,Paruževinska cesta,45.880471,16.138143,1873
1873_24,Paruževinska cesta,45.880098,16.138260,1873
1873,Paruževinska cesta,45.880285,16.138201,
1874_23,Kosirnikova,45.816525,15.953554,1874
1874_24,Kosirnikova,45.816421,15.953506,1874
1874,Kosirnikova,45.816473,15.953530,
1875_23,Vinogradi 24 b,45.821532,15.949756,1875
1875,Vinogradi 24 b,45.821532,15.949756,
1876_23,Vinogradi-okretište,45.824654,15.948266,1876
1876,Vinogradi-okretište,45.824654,15.948266,
1877_24,Vinogradi 27,45.821347,15.949898,1877
1877,Vinogradi 27,45.821347,15.949898,
1878_23,Naletilićeva 43,45.754166,15.940702,1878
1878,Naletilićeva 43,45.754166,15.940702,
1879_24,Vrhovec 233,45.836389,15.951430,1879
1879,Vrhovec 233,45.836389,15.951430,
1880_24,Naletilićeva 54,45.754379,15.940785,1880
1880,Naletilićeva 54,45.754379,15.940785,
1882_23,Aleja tišine,45.838768,16.046603,1882
1882,Aleja tišine,45.838768,16.046603,
1883_21,Bedekovićeva,45.754208,16.058780,1883
1883_22,Bedekovićeva,45.754254,16.058632,1883
1883,Bedekovićeva,45.754231,16.058706,
1884_21,Otok,45.761262,15.982025,1884
1884_22,Otok,45.760890,15.983895,1884
1884,Otok,45.761076,15.982960,
1885_21,Sirkovina,45.628643,15.924227,1885
1885_22,Sirkovina,45.628647,15.924361,1885
1885,Sirkovina,45.628645,15.924294,
1886_23,Radnička 173,45.787336,16.037653,1886
1886,Radnička 173,45.787336,16.037653,
1887_21,Kačićeva-Željeznička,45.717140,16.048387,1887
1887_24,Kačićeva-Željeznička,45.716922,16.046977,1887
1887,Kačićeva-Željeznička,45.717031,16.047682,
1888_21,Kačićeva-Vukomerička,45.715672,16.052302,1888
1888_22,Kačićeva-Vukomerička,45.716478,16.050480,1888
1888,Kačićeva-Vukomerička,45.716075,16.051391,
1889_23,IKEA,45.793235,16.155842,1889
1889,IKEA,45.793235,16.155842,
1892_23,Čulinečka 119,45.815081,16.066040,1892
1892_24,Čulinečka 119,45.813958,16.066147,1892
1892,Čulinečka 119,45.814520,16.066093,
1900_23,Naletilićeva 122,45.732023,15.928855,1900
1900_24,Naletilićeva 122,45.732254,15.929020,1900
1900,Naletilićeva 122,45.732138,15.928938,
1903_21,Markovo P.mrtvačnica,45.858389,16.120129,1903
1903,Markovo P.mrtvačnica,45.858389,16.120129,
1904_22,M.Polje parkiralište,45.858247,16.121727,1904
1904,M.Polje parkiralište,45.858247,16.121727,
1905_21,M.Polje istočni ulaz,45.857759,16.124986,1905
1905_22,M.Polje istočni ulaz,45.857750,16.125842,1905
1905,M.Polje istočni ulaz,45.857755,16.125414,
1906_23,M.Polje-okretište,45.860514,16.128990,1906
1906,M.Polje-okretište,45.860514,16.128990,
1907_23,Ive Dulčića,45.829420,16.097806,1907
1907,Ive Dulčića,45.829420,16.097806,
1908_23,Vinogorska 49,45.832734,16.100216,1908
1908,Vinogorska 49,45.832734,16.100216,
1909_22,Rebro 5,45.831827,16.099692,1909
1909,Rebro 5,45.831827,16.099692,
1916_21,Hruševečka,45.940109,15.811658,1916
1916_22,Hruševečka,45.940114,15.810892,1916
1916,Hruševečka,45.940111,15.811275,
1917_24,Šestinski lagvić,45.857477,15.949055,1917
1917,Šestinski lagvić,45.857477,15.949055,
1918_24,Kraljičin zdenac,45.881626,15.942024,1918
1918,Kraljičin zdenac,45.881626,15.942024,
1919_21,Branim.-Škrnjugova,45.823610,16.078682,1919
1919_22,Branim.-Škrnjugova,45.823555,16.076966,1919
1919,Branim.-Škrnjugova,45.823583,16.077824,
1920_22,Tišinska,45.769362,16.021794,1920
1920,Tišinska,45.769362,16.021794,
1921_24,Gata 13,45.762406,16.014747,1921
1921,Gata 13,45.762406,16.014747,
1922_23,Sarajevska-rotor,45.776975,16.003006,1922
1922,Sarajevska-rotor,45.776975,16.003006,
1923_24,Tišinska ul. III odv,45.763583,16.017819,1923
1923,Tišinska ul. III odv,45.763583,16.017819,
1924_21,Kamenarka 18,45.764453,16.010630,1924
1924,Kamenarka 18,45.764453,16.010630,
1930_21,Blage Zadre,45.823819,16.126437,1930
1930_22,Blage Zadre,45.823981,16.124719,1930
1930,Blage Zadre,45.823900,16.125578,
1958_21,Zelengaj,45.869735,15.789258,1958
1958_22,Zelengaj,45.869735,15.789258,1958
1958,Zelengaj,45.869735,15.789258,
1962_21,Odranski Obrež,45.714400,15.950801,1962
1962,Odranski Obrež,45.714400,15.950801,
1963_23,Vicebani-Mataki,45.714950,15.948196,1963
1963_24,Vicebani-Mataki,45.714551,15.948173,1963
1963,Vicebani-Mataki,45.714750,15.948184,
1965_21,Ivana Šturlića 15,45.829040,16.098464,1965
1965,Ivana Šturlića 15,45.829040,16.098464,
1966_23,Lukavec-Buverke,45.697895,15.984994,1966
1966_24,Lukavec-Buverke,45.697258,15.984579,1966
1966,Lukavec-Buverke,45.697577,15.984787,
1967_22,Kanfanarska,45.807557,16.040830,1967
1967,Kanfanarska,45.807557,16.040830,
1968_21,Savudrijska,45.807920,16.042287,1968
1968,Savudrijska,45.807920,16.042287,
1971_21,Gimn.L.Vranjanin,45.811594,15.891385,1971
1971_22,Gimn.L.Vranjanin,45.811759,15.892435,1971
1971,Gimn.L.Vranjanin,45.811677,15.891910,
1972_24,Hercegovačka 21,45.814247,15.956759,1972
1972,Hercegovačka 21,45.814247,15.956759,
1973_23,Bosanska,45.818480,15.957471,1973
1973,Bosanska,45.818480,15.957471,
1974_21,Buntićeva,45.816995,15.958616,1974
1974,Buntićeva,45.816995,15.958616,
1975_23,Velika Kosnica,45.767687,16.076121,1975
1975_24,Velika Kosnica,45.767334,16.078276,1975
1975,Velika Kosnica,45.767510,16.077199,
1976_23,Petina,45.756868,16.099547,1976
1976,Petina,45.756868,16.099547,
1977_21,Zračna luka,45.740001,16.082836,1977
1977_22,Zračna luka,45.739598,16.081806,1977
1977,Zračna luka,45.739799,16.082321,
1978_21,Ivana Pavla II,45.727685,16.055990,1978
1978_22,Ivana Pavla II,45.726600,16.054794,1978
1978,Ivana Pavla II,45.727142,16.055392,
1979_24,Vugrovečka 73,45.853679,16.112469,1979
1979,Vugrovečka 73,45.853679,16.112469,
1980_21,Stari terminal,45.733405,16.062656,1980
1980_22,Stari terminal,45.733223,16.062413,1980
1980,Stari terminal,45.733314,16.062535,
1981_23,Srebrnjak 10,45.818111,15.996308,1981
1981_24,Srebrnjak 10,45.817659,15.996367,1981
1981,Srebrnjak 10,45.817885,15.996337,
1982_23,Dumovec okretište,45.804698,16.159454,1982
1982_24,Dumovec okretište,45.804698,16.159454,1982
1982,Dumovec okretište,45.804698,16.159454,
1983_21,Puntijarka,45.904273,15.969675,1983
1983_22,Puntijarka,45.904101,15.969189,1983
1983,Puntijarka,45.904187,15.969432,
1984_23,Hunjka,45.914092,15.974792,1984
1984,Hunjka,45.914092,15.974792,
1985_23,Snježna kraljica,45.904236,15.963336,1985
1985_24,Snježna kraljica,45.903810,15.963155,1985
1985,Snježna kraljica,45.904023,15.963245,
1988_24,Klake,45.849087,15.814470,1988
1988,Klake,45.849087,15.814470,
1989_24,Bukovačka 23,45.822114,16.012364,1989
1989,Bukovačka 23,45.822114,16.012364,
1991_23,Goranska,45.739250,16.015586,1991
1991_24,Goranska,45.738392,16.015872,1991
1991,Goranska,45.738821,16.015729,
1992_23,Galijska,45.743563,16.014108,1992
1992_24,Galijska,45.742869,16.014347,1992
1992,Galijska,45.743216,16.014227,
1995_23,Skradnička,45.741080,15.889902,1995
1995_24,Skradnička,45.740553,15.889865,1995
1995,Skradnička,45.740817,15.889883,
1996_22,Markuševečka 18,45.863569,15.992567,1996
1996,Markuševečka 18,45.863569,15.992567,
1998_24,Žarka Dolinara,45.778309,15.966151,1998
1998,Žarka Dolinara,45.778309,15.966151,
1999_23,ZG Velesajam,45.778408,15.966078,1999
1999,ZG Velesajam,45.778408,15.966078,
2001_21,Podbrežje okretište,45.767264,15.973458,2001
2001_25,Podbrežje okretište,45.767264,15.973458,2001
2001,Podbrežje okretište,45.767264,15.973458,
2022_22,Dubečka 94,45.834921,16.077770,2022
2022,Dubečka 94,45.834921,16.077770,
2023_21,Jazbina 120,45.851502,16.008571,2023
2023_22,Jazbina 120,45.851890,16.008054,2023
2023,Jazbina 120,45.851696,16.008312,
2024_24,Branovečka 143,45.866685,16.076394,2024
2024,Branovečka 143,45.866685,16.076394,
2025_24,Branim.-Zagrebačka,45.826019,16.082847,2025
2025,Branim.-Zagrebačka,45.826019,16.082847,
2026_24,Vinogradska 3,45.813502,15.955922,2026
2026,Vinogradska 3,45.813502,15.955922,
2027_24,Mikulići,45.852374,15.932752,2027
2027_28,Mikulići,45.852374,15.932752,2027
2027,Mikulići,45.852374,15.932752,
2028_23,Ul. Kaktusa 34,45.829502,16.086731,2028
2028,Ul. Kaktusa 34,45.829502,16.086731,
2029_23,MO N.Brestje,45.828846,16.090892,2029
2029_24,MO N.Brestje,45.828824,16.091205,2029
2029,MO N.Brestje,45.828835,16.091049,
2030_22,Delec,45.834803,16.095946,2030
2030,Delec,45.834803,16.095946,
2031_24,Ul. Kaktusa 47,45.829643,16.086943,2031
2031,Ul. Kaktusa 47,45.829643,16.086943,
2032_24,D.Mandića 91,45.833164,15.892868,2032
2032,D.Mandića 91,45.833164,15.892868,
2035_23,Branovečina 151,45.841734,16.079008,2035
2035,Branovečina 151,45.841734,16.079008,
2036_23,P.D. Runolist,45.889880,15.964786,2036
2036,P.D. Runolist,45.889880,15.964786,
2037_24,Put za Medvedgrad,45.875636,15.939998,2037
2037,Put za Medvedgrad,45.875636,15.939998,
2038_22,Peršinci,45.832362,15.917749,2038
2038,Peršinci,45.832362,15.917749,
2039_21,Završje III. odvojak,45.833126,15.915875,2039
2039_22,Završje III. odvojak,45.833680,15.914941,2039
2039,Završje III. odvojak,45.833403,15.915408,
2040_22,Trdice 56,45.835618,15.909641,2040
2040,Trdice 56,45.835618,15.909641,
2042_23,Trdice 52,45.835349,15.909394,2042
2042,Trdice 52,45.835349,15.909394,
2043_23,Pantovčak 178b,45.832001,15.962236,2043
2043,Pantovčak 178b,45.832001,15.962236,
2044_23,Remetinečka 15,45.780209,15.954552,2044
2044_27,Remetinečka 15,45.780312,15.954609,2044
2044,Remetinečka 15,45.780261,15.954580,
2045_23,Pršaki-ambulanta,45.871819,16.054467,2045
2045,Pršaki-ambulanta,45.871819,16.054467,
2046_21,Šiprunec,45.878449,16.047660,2046
2046_22,Šiprunec,45.878564,16.047630,2046
2046,Šiprunec,45.878507,16.047645,
2047_21,Šafrani,45.880642,16.043796,2047
2047_22,Šafrani,45.881172,16.042957,2047
2047,Šafrani,45.880907,16.043376,
2048_24,Slanovečka-škola,45.872712,16.054382,2048
2048,Slanovečka-škola,45.872712,16.054382,
2051_21,Goli Breg-Groblje,45.732830,15.896550,2051
2051,Goli Breg-Groblje,45.732830,15.896550,
2054_22,Iver,45.812683,16.182832,2054
2054_26,Iver,45.812683,16.182832,2054
2054,Iver,45.812683,16.182832,
2056_21,Resnik III,45.804837,16.084894,2056
2056_22,Resnik III,45.804700,16.082103,2056
2056,Resnik III,45.804768,16.083499,
2057_23,Odvojak Reber,45.901199,16.125225,2057
2057_24,Odvojak Reber,45.900622,16.124890,2057
2057,Odvojak Reber,45.900910,16.125058,
2058_24,Zadvorska 4,45.725701,15.915105,2058
2058,Zadvorska 4,45.725701,15.915105,
2059_24,Kašinci,45.720781,15.909073,2059
2059,Kašinci,45.720781,15.909073,
2060_24,Zadvorska 54,45.715852,15.905446,2060
2060,Zadvorska 54,45.715852,15.905446,
2061_24,Zadvorska 58B,45.713616,15.902852,2061
2061,Zadvorska 58B,45.713616,15.902852,
2062_24,Hudobička I.odvojak,45.709318,15.901707,2062
2062,Hudobička I.odvojak,45.709318,15.901707,
2063_24,Hudobička IV.odvojak,45.705310,15.900904,2063
2063,Hudobička IV.odvojak,45.705310,15.900904,
2065_23,Zelena mag.-Rušiščak,45.824617,15.873675,2065
2065_24,Zelena mag.-Rušiščak,45.824880,15.873275,2065
2065,Zelena mag.-Rušiščak,45.824749,15.873475,
2066_22,Aleja Matije Ljubeka,45.785223,15.917955,2066
2066,Aleja Matije Ljubeka,45.785223,15.917955,
2067_21,Jarun,45.782959,15.926565,2067
2067_23,Jarun,45.783932,15.926192,2067
2067_24,Jarun,45.783464,15.925684,2067
2067_27,Jarun,45.783932,15.926192,2067
2067,Jarun,45.783572,15.926158,
2068_22,Dom veslača,45.787609,15.912524,2068
2068,Dom veslača,45.787609,15.912524,
2069_24,Veliko jezero,45.782358,15.909252,2069
2069,Veliko jezero,45.782358,15.909252,
2070_24,Savski n. Park&Ride,45.779613,15.907846,2070
2070,Savski n. Park&Ride,45.779613,15.907846,
2071_21,Jarun-skate park,45.778362,15.912392,2071
2071,Jarun-skate park,45.778362,15.912392,
2072_21,Kajakaški prilaz,45.776115,15.921495,2072
2072,Kajakaški prilaz,45.776115,15.921495,
2073_21,Ribički prilaz,45.774441,15.932135,2073
2073,Ribički prilaz,45.774441,15.932135,
2074_23,Malo jezero,45.776345,15.937697,2074
2074,Malo jezero,45.776345,15.937697,
2075_23,Jarunska obala,45.780736,15.937241,2075
2075,Jarunska obala,45.780736,15.937241,
2076_22,Petrine,45.781235,15.932469,2076
2076,Petrine,45.781235,15.932469,
2078_23,Lipovac I.,45.828956,15.995803,2078
2078,Lipovac I.,45.828956,15.995803,
2079_24,Vodosprema Lašćina,45.828011,15.996352,2079
2079,Vodosprema Lašćina,45.828011,15.996352,
2080_24,Lašćinski Borovec,45.830216,15.994056,2080
2080,Lašćinski Borovec,45.830216,15.994056,
2081_22,Dolec,45.817310,15.864119,2081
2081_24,Dolec,45.817310,15.864119,2081
2081,Dolec,45.817310,15.864119,
2082_21,Sigetje,45.814422,15.869966,2082
2082,Sigetje,45.814422,15.869966,
2083_23,Grintavečka,45.816640,15.872594,2083
2083,Grintavečka,45.816640,15.872594,
2084_23,Jelenovac 38D,45.826887,15.952691,2084
2084,Jelenovac 38D,45.826887,15.952691,
2085_23,Belostenčeva,45.822257,15.979944,2085
2085_24,Belostenčeva,45.822165,15.979619,2085
2085,Belostenčeva,45.822211,15.979782,
2086_23,Gupčeva zvijezda,45.829000,15.979116,2086
2086_24,Gupčeva zvijezda,45.828582,15.978999,2086
2086,Gupčeva zvijezda,45.828791,15.979057,
2087_23,Radićevo šetalište,45.831646,15.978182,2087
2087_24,Radićevo šetalište,45.832299,15.977820,2087
2087,Radićevo šetalište,45.831973,15.978001,
2098_23,Starjak,45.673722,15.886166,2098
2098_24,Starjak,45.673838,15.886410,2098
2098,Starjak,45.673780,15.886288,
2099_21,Augusta Piazze,45.783521,15.931869,2099
2099_22,Augusta Piazze,45.783521,15.931869,2099
2099,Augusta Piazze,45.783521,15.931869,
2100_23,Pakračka,45.798987,15.930346,2100
2100_24,Pakračka,45.798519,15.930306,2100
2100,Pakračka,45.798753,15.930326,
2101_23,Marice Barić,45.793524,15.930530,2101
2101_24,Marice Barić,45.793177,15.929770,2101
2101,Marice Barić,45.793351,15.930150,
2102_24,Pliva,45.812630,15.931636,2102
2102,Pliva,45.812630,15.931636,
2103_21,Pr. b. Filipovića,45.811767,15.941137,2103
2103,Pr. b. Filipovića,45.811767,15.941137,
